$GPRMC,165252.000,A,4141.251,N,00448.833,W,57.24,166.96,190114,,*26
$GPGGA,165252.000,4141.251,N,00448.833,W,1,00,0.0,846.018,M,0.0,M,,*7C
$GPVTG,166.963,T,0,M,57.235,N,106.000,K*6C
$GPGSA,A,3,,,,,,,,,,,,,0.0,0.0,0.0*32
$GPRMC,165253.000,A,4141.235,N,00448.828,W,57.24,165.26,190114,,*27
$GPGGA,165253.000,4141.235,N,00448.828,W,1,00,0.0,845.150,M,0.0,M,,*7B
$GPVTG,165.264,T,0,M,57.235,N,106.000,K*63
$GPGSA,A,3,,,,,,,,,,,,,0.0,0.0,0.0*32
$GPRMC,165254.000,A,4141.220,N,00448.822,W,57.24,165.07,190114,,*2D
$GPGGA,165254.000,4141.220,N,00448.822,W,1,00,0.0,845.691,M,0.0,M,,*78
$GPVTG,165.066,T,0,M,57.235,N,106.000,K*63
$GPGSA,A,3,,,,,,,,,,,,,0.0,0.0,0.0*32
$GPRMC,165255.000,A,4141.204,N,00448.817,W,57.24,165.07,190114,,*2C
$GPGGA,165255.000,4141.204,N,00448.817,W,1,00,0.0,846.231,M,0.0,M,,*74
$GPVTG,165.066,T,0,M,57.235,N,106.000,K*63
$GPGSA,A,3,,,,,,,,,,,,,0.0,0.0,0.0*32
$GPRMC,165256.000,A,4141.189,N,00448.810,W,57.24,162.98,190114,,*2F
$GPGGA,165256.000,4141.189,N,00448.810,W,1,00,0.0,845.966,M,0.0,M,,*7C
$GPVTG,162.976,T,0,M,57.235,N,106.000,K*6C
$GPGSA,A,3,,,,,,,,,,,,,0.0,0.0,0.0*32
$GPRMC,165257.000,A,4141.174,N,00448.804,W,57.24,163.20,190114,,*2B
$GPGGA,165257.000,4141.174,N,00448.804,W,1,00,0.0,846.444,M,0.0,M,,*74
$GPVTG,163.195,T,0,M,57.235,N,106.000,K*68
$GPGSA,A,3,,,,,,,,,,,,,0.0,0.0,0.0*32
$GPRMC,165258.000,A,4141.159,N,00448.797,W,57.24,161.09,190114,,*27
$GPGGA,165258.000,4141.159,N,00448.797,W,1,00,0.0,846.116,M,0.0,M,,*73
$GPVTG,161.095,T,0,M,57.235,N,106.000,K*6B
$GPGSA,A,3,,,,,,,,,,,,,0.0,0.0,0.0*32
$GPRMC,165259.000,A,4141.143,N,00448.790,W,57.78,161.56,190114,,*29
$GPGGA,165259.000,4141.143,N,00448.790,W,1,00,0.0,845.123,M,0.0,M,,*7B
$GPVTG,161.555,T,0,M,57.775,N,107.000,K*62
$GPGSA,A,3,,,,,,,,,,,,,0.0,0.0,0.0*32
$GPRMC,165300.000,A,4141.128,N,00448.783,W,57.78,161.35,190114,,*2E
$GPGGA,165300.000,4141.128,N,00448.783,W,1,00,0.0,845.539,M,0.0,M,,*76
$GPVTG,161.354,T,0,M,57.775,N,107.000,K*65
$GPGSA,A,3,,,,,,,,,,,,,0.0,0.0,0.0*32
$GPRMC,165301.000,A,4141.113,N,00448.776,W,57.78,159.25,190114,,*27
$GPGGA,165301.000,4141.113,N,00448.776,W,1,00,0.0,845.149,M,0.0,M,,*76
$GPVTG,159.248,T,0,M,57.775,N,107.000,K*62
$GPGSA,A,3,,,,,,,,,,,,,0.0,0.0,0.0*32
$GPRMC,165302.000,A,4141.098,N,00448.767,W,58.32,157.44,190114,,*2E
$GPGGA,165302.000,4141.098,N,00448.767,W,1,00,0.0,844.696,M,0.0,M,,*73
$GPVTG,157.438,T,0,M,58.315,N,108.000,K*6F
$GPGSA,A,3,,,,,,,,,,,,,0.0,0.0,0.0*32
$GPRMC,165303.000,A,4141.083,N,00448.759,W,58.32,157.44,190114,,*28
$GPGGA,165303.000,4141.083,N,00448.759,W,1,00,0.0,844.243,M,0.0,M,,*79
$GPVTG,157.438,T,0,M,58.315,N,108.000,K*6F
$GPGSA,A,3,,,,,,,,,,,,,0.0,0.0,0.0*32
$GPRMC,165304.000,A,4141.068,N,00448.751,W,58.32,157.77,190114,,*22
$GPGGA,165304.000,4141.068,N,00448.751,W,1,00,0.0,844.534,M,0.0,M,,*74
$GPVTG,157.769,T,0,M,58.315,N,108.000,K*68
$GPGSA,A,3,,,,,,,,,,,,,0.0,0.0,0.0*32
$GPRMC,165305.000,A,4141.053,N,00448.742,W,58.86,155.07,190114,,*23
$GPGGA,165305.000,4141.053,N,00448.742,W,1,00,0.0,844.684,M,0.0,M,,*77
$GPVTG,155.073,T,0,M,58.855,N,109.000,K*68
$GPGSA,A,3,,,,,,,,,,,,,0.0,0.0,0.0*32
$GPRMC,165306.000,A,4141.038,N,00448.732,W,58.86,153.94,190114,,*26
$GPGGA,165306.000,4141.038,N,00448.732,W,1,00,0.0,844.106,M,0.0,M,,*73

$GPRMC,165305.000,A,4141.053,N,00448.742,W,58.86,155.07,190114,,*23
$GPGGA,165305.000,4141.053,N,00448.742,W,1,00,0.0,844.684,M,0.0,M,,*77

$GPVTG,153.938,T,0,M,58.855,N,109.000,K*68
$GPGSA,A,3,,,,,,,,,,,,,0.0,0.0,0.0*32
$GPRMC,165307.000,A,4141.023,N,00448.722,W,59.40,153.94,190114,,*27
$GPGGA,165307.000,4141.023,N,00448.722,W,1,00,0.0,843.529,M,0.0,M,,*77
$GPVTG,153.938,T,0,M,59.395,N,110.000,K*66
$GPGSA,A,3,,,,,,,,,,,,,0.0,0.0,0.0*32
$GPRMC,165308.000,A,4141.009,N,00448.712,W,59.40,153.31,190114,,*2C
$GPGGA,165308.000,4141.009,N,00448.712,W,1,00,0.0,843.617,M,0.0,M,,*7D
$GPVTG,153.312,T,0,M,59.395,N,110.000,K*64
$GPGSA,A,3,,,,,,,,,,,,,0.0,0.0,0.0*32
$GPRMC,165309.000,A,4140.994,N,00448.702,W,59.40,152.67,190114,,*22
$GPGGA,165309.000,4140.994,N,00448.702,W,1,00,0.0,843.721,M,0.0,M,,*75
$GPVTG,152.674,T,0,M,59.395,N,110.000,K*60
$GPGSA,A,3,,,,,,,,,,,,,0.0,0.0,0.0*32
$GPRMC,165310.000,A,4140.979,N,00448.691,W,59.94,151.60,190114,,*2F
$GPGGA,165310.000,4140.979,N,00448.691,W,1,00,0.0,843.746,M,0.0,M,,*74
$GPVTG,151.597,T,0,M,59.935,N,111.000,K*6C
$GPGSA,A,3,,,,,,,,,,,,,0.0,0.0,0.0*32