$GPGGA,205500.000,4107.6089,N,00334.9873,W,1,06,2.2,1411.8,M,51.7,M,,0000*70
$GPGSA,A,3,27,18,16,22,21,03,,,,,,,3.4,2.2,2.6*3A
$GPGSV,3,1,12,27,74,038,29,03,69,321,26,19,56,312,26,22,53,097,32*70
$GPGSV,3,2,12,16,51,176,29,18,30,053,29,11,24,262,15,07,15,290,20*7A
$GPGSV,3,3,12,08,12,315,17,21,12,059,26,01,08,243,19,30,08,316,*73
$GPRMC,205500.000,A,4107.6089,N,00334.9873,W,42.33,6.21,310514,,,A*4B
$GPGGA,205501.000,4107.6208,N,00334.9864,W,1,06,2.2,1413.0,M,51.7,M,,0000*76
$GPGSA,A,3,27,18,16,22,21,03,,,,,,,3.4,2.2,2.6*3A
$GPRMC,205501.000,A,4107.6208,N,00334.9864,W,42.19,4.04,310514,,,A*4A
$GPGGA,205502.000,4107.6326,N,00334.9859,W,1,06,2.2,1414.3,M,51.7,M,,0000*72
$GPGSA,A,3,27,18,16,22,21,03,,,,,,,3.4,2.2,2.6*3A
$GPRMC,205502.000,A,4107.6326,N,00334.9859,W,42.09,2.08,310514,,,A*41
$GPGGA,205503.000,4107.6443,N,00334.9860,W,1,06,2.2,1415.5,M,51.7,M,,0000*7A
$GPGSA,A,3,27,18,16,22,21,03,,,,,,,3.4,2.2,2.6*3A
$GPRMC,205503.000,A,4107.6443,N,00334.9860,W,41.92,0.32,310514,,,A*44
$GPGGA,205504.000,4107.6560,N,00334.9865,W,1,06,2.2,1416.8,M,51.7,M,,0000*76
$GPGSA,A,3,27,18,16,22,21,03,,,,,,,3.4,2.2,2.6*3A
$GPRMC,205504.000,A,4107.6560,N,00334.9865,W,41.69,358.14,310514,,,A*48
$GPGGA,205505.000,4107.6676,N,00334.9877,W,1,05,2.3,1417.6,M,51.7,M,,0000*7D
$GPGSA,A,3,27,18,16,22,03,,,,,,,,4.5,2.3,3.9*30
$GPGSV,3,1,12,27,74,038,29,03,69,321,27,19,56,312,26,22,53,097,31*72
$GPGSV,3,2,12,16,51,176,26,18,30,053,17,11,24,262,15,07,15,290,09*73
$GPGSV,3,3,12,08,12,315,16,21,12,059,09,01,08,243,,30,08,316,*77
$GPRMC,205505.000,A,4107.6676,N,00334.9877,W,42.05,356.25,310514,,,A*4B
$GPGGA,205506.000,4107.6793,N,00334.9895,W,1,06,2.2,1418.5,M,51.7,M,,0000*76
$GPGSA,A,3,27,18,16,22,21,03,,,,,,,3.4,2.2,2.6*3A
$GPRMC,205506.000,A,4107.6793,N,00334.9895,W,41.88,353.56,310514,,,A*49
$GPGGA,205507.000,4107.6904,N,00334.9922,W,1,06,2.2,1419.6,M,51.7,M,,0000*78
$GPGSA,A,3,27,18,16,22,21,03,,,,,,,3.4,2.2,2.6*3A
$GPRMC,205507.000,A,4107.6904,N,00334.9922,W,41.23,350.62,310514,,,A*40
$GPGGA,205508.000,4107.7019,N,00334.9951,W,1,06,2.2,1421.4,M,51.7,M,,0000*7E
$GPGSA,A,3,27,18,16,22,21,03,,,,,,,3.4,2.2,2.6*3A
$GPRMC,205508.000,A,4107.7019,N,00334.9951,W,41.96,349.47,310514,,,A*4E
$GPGGA,205509.000,4107.7133,N,00334.9984,W,1,06,2.2,1422.7,M,51.7,M,,0000*7E
$GPGSA,A,3,27,18,16,22,21,03,,,,,,,3.4,2.2,2.6*3A
$GPRMC,205509.000,A,4107.7133,N,00334.9984,W,42.64,348.52,310514,,,A*45
$GPGGA,205510.000,4107.7245,N,00335.0024,W,1,06,2.2,1422.4,M,51.7,M,,0000*7C
$GPGSA,A,3,27,18,16,22,21,03,,,,,,,3.4,2.2,2.6*3A
$GPGSV,3,1,12,27,74,038,22,03,69,321,28,19,56,312,27,22,53,097,30*76
$GPGSV,3,2,12,16,51,176,15,18,30,053,27,11,24,262,23,07,15,290,25*7B
$GPGSV,3,3,12,08,12,315,21,21,12,059,15,01,08,243,,30,08,316,*7E
$GPRMC,205510.000,A,4107.7245,N,00335.0024,W,42.85,347.59,310514,,,A*4F
$GPGGA,205511.000,4107.7363,N,00335.0063,W,1,06,2.2,1422.8,M,51.7,M,,0000*77
$GPGSA,A,3,27,18,16,22,21,03,,,,,,,3.4,2.2,2.6*3A
$GPRMC,205511.000,A,4107.7363,N,00335.0063,W,43.70,347.42,310514,,,A*49
$GPGGA,205512.000,4107.7475,N,00335.0101,W,1,06,2.2,1425.1,M,51.7,M,,0000*7F
$GPGSA,A,3,27,18,16,22,21,03,,,,,,,3.4,2.2,2.6*3A
$GPRMC,205512.000,A,4107.7475,N,00335.0101,W,42.63,344.87,310514,,,A*46
$GPGGA,205513.000,4107.7581,N,00335.0147,W,1,06,2.2,1427.5,M,51.7,M,,0000*70
$GPGSA,A,3,27,18,16,22,21,03,,,,,,,3.4,2.2,2.6*3A
$GPRMC,205513.000,A,4107.7581,N,00335.0147,W,41.56,344.15,310514,,,A*41
$GPGGA,205514.000,4107.7694,N,00335.0187,W,1,06,2.2,1430.3,M,51.7,M,,0000*7C
$GPGSA,A,3,27,18,16,22,21,03,,,,,,,3.4,2.2,2.6*3A
$GPRMC,205514.000,A,4107.7694,N,00335.0187,W,41.71,345.12,310514,,,A*4E
$GPGGA,205515.000,4107.7814,N,00335.0222,W,1,06,2.2,1432.7,M,51.7,M,,0000*71
$GPGSA,A,3,27,18,16,22,21,03,,,,,,,3.4,2.2,2.6*3A
$GPGSV,3,1,12,27,74,038,22,03,69,321,28,19,56,312,27,22,53,097,22*75
$GPGSV,3,2,12,16,51,176,16,18,30,053,21,11,24,262,15,07,15,290,24*7A
$GPGSV,3,3,12,08,12,315,20,21,12,059,26,01,08,243,,30,08,316,17*79
$GPRMC,205515.000,A,4107.7814,N,00335.0222,W,42.64,347.54,310514,,,A*42
$GPGGA,205516.000,4107.7927,N,00335.0253,W,1,06,2.2,1434.4,M,51.7,M,,0000*70
$GPGSA,A,3,27,18,16,22,21,03,,,,,,,3.4,2.2,2.6*3A
$GPRMC,205516.000,A,4107.7927,N,00335.0253,W,42.91,348.80,310514,,,A*4A
$GPGGA,205517.000,4107.8034,N,00335.0281,W,1,06,2.2,1436.7,M,51.7,M,,0000*7B
$GPGSA,A,3,27,18,16,22,21,03,,,,,,,3.4,2.2,2.6*3A
$GPRMC,205517.000,A,4107.8034,N,00335.0281,W,41.63,350.64,310514,,,A*4D
$GPGGA,205518.000,4107.8145,N,00335.0300,W,1,06,2.2,1439.3,M,51.7,M,,0000*70
$GPGSA,A,3,27,18,16,22,21,03,,,,,,,3.4,2.2,2.6*3A
$GPRMC,205518.000,A,4107.8145,N,00335.0300,W,41.31,353.13,310514,,,A*49
$GPGGA,205519.000,4107.8250,N,00335.0314,W,1,06,2.2,1439.2,M,51.7,M,,0000*72
$GPGSA,A,3,27,18,16,22,21,03,,,,,,,3.4,2.2,2.6*3A
$GPRMC,205519.000,A,4107.8250,N,00335.0314,W,40.89,355.50,310514,,,A*49
$GPGGA,205520.000,4107.8358,N,00335.0332,W,1,06,2.2,1437.6,M,51.7,M,,0000*7F
$GPGSA,A,3,27,18,16,22,21,03,,,,,,,3.4,2.2,2.6*3A
$GPGSV,3,1,12,27,74,038,23,03,69,321,28,19,56,312,22,22,53,097,20*73
$GPGSV,3,2,12,16,51,176,17,18,30,053,25,11,24,262,12,07,15,290,14*7B
$GPGSV,3,3,12,08,12,315,26,21,12,059,27,01,08,243,18,30,08,316,23*70
$GPRMC,205520.000,A,4107.8358,N,00335.0332,W,40.87,357.38,310514,,,A*4C
$GPGGA,205521.000,4107.8475,N,00335.0340,W,1,06,2.2,1438.4,M,51.7,M,,0000*7E
$GPGSA,A,3,27,18,16,22,21,03,,,,,,,3.4,2.2,2.6*3A
$GPRMC,205521.000,A,4107.8475,N,00335.0340,W,41.75,359.16,310514,,,A*4E
$GPGGA,205522.000,4107.8595,N,00335.0337,W,1,06,2.2,1439.8,M,51.7,M,,0000*7F
$GPGSA,A,3,27,18,16,22,21,03,,,,,,,3.4,2.2,2.6*3A
$GPRMC,205522.000,A,4107.8595,N,00335.0337,W,41.96,0.91,310514,,,A*4F
$GPGGA,205523.000,4107.8713,N,00335.0314,W,1,05,2.3,1442.9,M,51.7,M,,0000*7C
$GPGSA,A,3,27,18,16,22,03,,,,,,,,4.5,2.3,3.9*30
$GPRMC,205523.000,A,4107.8713,N,00335.0314,W,41.83,4.07,310514,,,A*4C
$GPGGA,205524.000,4107.8827,N,00335.0293,W,1,03,2.4,1444.0,M,51.7,M,,0000*73
$GPGSA,A,2,16,22,03,,,,,,,,,,2.6,2.4,1.0*34
$GPRMC,205524.000,A,4107.8827,N,00335.0293,W,41.92,7.12,310514,,,A*4A
$GPGGA,205525.000,4107.8943,N,00335.0274,W,6,00,50.0,1445.2,M,51.7,M,,0000*4C
$GPGSA,A,2,,,,,,,,,,,,,50.0,50.0,50.0*06
$GPGSV,3,1,12,27,74,038,07,03,69,321,11,19,56,312,,22,53,097,13*7F
$GPGSV,3,2,12,16,51,176,19,18,30,053,08,11,24,262,,07,15,290,15*78
$GPGSV,3,3,12,08,12,315,,21,12,059,07,01,08,243,18,30,08,316,11*77
$GPRMC,205525.000,V,4107.8943,N,00335.0274,W,41.92,7.12,310514,,,E*52
$GPGGA,205526.000,4107.9058,N,00335.0254,W,6,00,50.0,1446.4,M,51.7,M,,0000*4A
$GPGSA,A,2,,,,,,,,,,,,,50.0,50.0,50.0*06
$GPRMC,205526.000,V,4107.9058,N,00335.0254,W,41.92,7.12,310514,,,E*51
$GPGGA,205527.000,4107.9174,N,00335.0235,W,6,00,50.0,1447.6,M,51.7,M,,0000*40
$GPGSA,A,2,,,,,,,,,,,,,50.0,50.0,50.0*06
$GPRMC,205527.000,V,4107.9174,N,00335.0235,W,41.92,7.12,310514,,,E*58
$GPGGA,205528.000,4107.9289,N,00335.0216,W,6,00,50.0,1448.8,M,51.7,M,,0000*4E
$GPGSA,A,2,,,,,,,,,,,,,50.0,50.0,50.0*06
$GPRMC,205528.000,V,4107.9289,N,00335.0216,W,41.92,7.12,310514,,,E*57
$GPGGA,205529.000,,,,,0,00,50.0,,M,0.0,M,,0000*44
$GPGSA,A,1,,,,,,,,,,,,,50.0,50.0,50.0*05
$GPRMC,205529.000,V,,,,,,,310514,,,N*46
$GPGGA,205530.000,,,,,0,00,50.0,,M,0.0,M,,0000*4C
$GPGSA,A,1,,,,,,,,,,,,,50.0,50.0,50.0*05
$GPGSV,3,1,12,27,74,038,,03,69,321,,19,56,312,,22,53,097,*7A
$GPGSV,3,2,12,16,51,176,,18,30,053,,11,24,262,15,07,15,290,14*7D
$GPGSV,3,3,12,08,12,315,,21,12,059,,01,08,243,,30,08,316,*79
$GPRMC,205530.000,V,,,,,,,310514,,,N*4E
$GPGGA,205531.000,,,,,0,00,50.0,,M,0.0,M,,0000*4D
$GPGSA,A,1,,,,,,,,,,,,,50.0,50.0,50.0*05
$GPRMC,205531.000,V,,,,,,,310514,,,N*4F
$GPGGA,205532.000,,,,,0,00,50.0,,M,0.0,M,,0000*4E
$GPGSA,A,1,,,,,,,,,,,,,50.0,50.0,50.0*05
$GPRMC,205532.000,V,,,,,,,310514,,,N*4C
$GPGGA,205533.000,,,,,0,00,50.0,,M,0.0,M,,0000*4F
$GPGSA,A,1,,,,,,,,,,,,,50.0,50.0,50.0*05
$GPRMC,205533.000,V,,,,,,,310514,,,N*4D
$GPGGA,205534.000,,,,,0,00,50.0,,M,0.0,M,,0000*48
$GPGSA,A,1,,,,,,,,,,,,,50.0,50.0,50.0*05
$GPRMC,205534.000,V,,,,,,,310514,,,N*4A
$GPGGA,205535.000,,,,,0,00,50.0,,M,0.0,M,,0000*49
$GPGSA,A,1,,,,,,,,,,,,,50.0,50.0,50.0*05
$GPGSV,3,1,12,27,74,038,,03,69,321,,19,56,312,,22,53,097,*7A
$GPGSV,3,2,12,16,51,176,,18,30,053,,11,24,262,,07,15,290,*7C
$GPGSV,3,3,12,08,12,315,,21,12,059,,01,08,243,,30,08,316,*79
$GPRMC,205535.000,V,,,,,,,310514,,,N*4B
$GPGGA,205536.000,,,,,0,00,50.0,,M,0.0,M,,0000*4A
$GPGSA,A,1,,,,,,,,,,,,,50.0,50.0,50.0*05
$GPRMC,205536.000,V,,,,,,,310514,,,N*48
$GPGGA,205537.000,,,,,0,00,50.0,,M,0.0,M,,0000*4B
$GPGSA,A,1,,,,,,,,,,,,,50.0,50.0,50.0*05
$GPRMC,205537.000,V,,,,,,,310514,,,N*49
$GPGGA,205538.000,,,,,0,00,50.0,,M,0.0,M,,0000*44
$GPGSA,A,1,,,,,,,,,,,,,50.0,50.0,50.0*05
$GPRMC,205538.000,V,,,,,,,310514,,,N*46
$GPGGA,205539.000,,,,,0,00,50.0,,M,0.0,M,,0000*45
$GPGSA,A,1,,,,,,,,,,,,,50.0,50.0,50.0*05
$GPRMC,205539.000,V,,,,,,,310514,,,N*47
$GPGGA,205540.000,,,,,0,00,50.0,,M,0.0,M,,0000*4B
$GPGSA,A,1,,,,,,,,,,,,,50.0,50.0,50.0*05
$GPGSV,3,1,12,27,74,038,,03,69,321,,19,56,312,,22,53,097,*7A
$GPGSV,3,2,12,16,51,176,,18,30,053,,11,24,262,,07,15,290,*7C
$GPGSV,3,3,12,08,12,315,,21,12,059,,01,08,243,,30,08,316,*79
$GPRMC,205540.000,V,,,,,,,310514,,,N*49
$GPGGA,205541.000,,,,,0,00,50.0,,M,0.0,M,,0000*4A
$GPGSA,A,1,,,,,,,,,,,,,50.0,50.0,50.0*05
$GPRMC,205541.000,V,,,,,,,310514,,,N*48
$GPGGA,205542.000,,,,,0,00,50.0,,M,0.0,M,,0000*49
$GPGSA,A,1,,,,,,,,,,,,,50.0,50.0,50.0*05
$GPRMC,205542.000,V,,,,,,,310514,,,N*4B
$GPGGA,205543.000,,,,,0,00,50.0,,M,0.0,M,,0000*48
$GPGSA,A,1,,,,,,,,,,,,,50.0,50.0,50.0*05
$GPRMC,205543.000,V,,,,,,,310514,,,N*4A
$GPGGA,205544.000,,,,,0,00,50.0,,M,0.0,M,,0000*4F
$GPGSA,A,1,,,,,,,,,,,,,50.0,50.0,50.0*05
$GPRMC,205544.000,V,,,,,,,310514,,,N*4D
$GPGGA,205545.000,,,,,0,00,50.0,,M,0.0,M,,0000*4E
$GPGSA,A,1,,,,,,,,,,,,,50.0,50.0,50.0*05
$GPGSV,3,1,12,27,74,043,,03,70,323,,19,57,313,,22,53,095,*7E
$GPGSV,3,2,12,16,50,176,,18,29,052,,11,25,263,,07,14,289,*7D
$GPGSV,3,3,12,08,12,313,,21,11,059,,01,09,244,,30,08,315,*79
$GPRMC,205545.000,V,,,,,,,310514,,,N*4C
$GPGGA,205546.000,,,,,0,00,50.0,,M,0.0,M,,0000*4D
$GPGSA,A,1,,,,,,,,,,,,,50.0,50.0,50.0*05
$GPRMC,205546.000,V,,,,,,,310514,,,N*4F
$GPGGA,205547.000,,,,,0,00,50.0,,M,0.0,M,,0000*4C
$GPGSA,A,1,,,,,,,,,,,,,50.0,50.0,50.0*05
$GPRMC,205547.000,V,,,,,,,310514,,,N*4E
$GPGGA,205548.000,,,,,0,00,50.0,,M,0.0,M,,0000*43
$GPGSA,A,1,,,,,,,,,,,,,50.0,50.0,50.0*05
$GPRMC,205548.000,V,,,,,,,310514,,,N*41
$GPGGA,205549.000,,,,,0,00,50.0,,M,0.0,M,,0000*42
$GPGSA,A,1,,,,,,,,,,,,,50.0,50.0,50.0*05
$GPRMC,205549.000,V,,,,,,,310514,,,N*40
$GPGGA,205550.000,,,,,0,00,50.0,,M,0.0,M,,0000*4A
$GPGSA,A,1,,,,,,,,,,,,,50.0,50.0,50.0*05
$GPGSV,3,1,12,27,74,043,,03,70,323,,19,57,313,,22,53,095,*7E
$GPGSV,3,2,12,16,50,176,,18,29,052,,11,25,263,,07,14,289,*7D
$GPGSV,3,3,12,08,12,313,,21,11,059,,01,09,244,,30,08,315,*79
$GPRMC,205550.000,V,,,,,,,310514,,,N*48
$GPGGA,205551.000,,,,,0,00,50.0,,M,0.0,M,,0000*4B
$GPGSA,A,1,,,,,,,,,,,,,50.0,50.0,50.0*05
$GPRMC,205551.000,V,,,,,,,310514,,,N*49
$GPGGA,205552.000,,,,,0,00,50.0,,M,0.0,M,,0000*48
$GPGSA,A,1,,,,,,,,,,,,,50.0,50.0,50.0*05
$GPRMC,205552.000,V,,,,,,,310514,,,N*4A
$GPGGA,205553.000,,,,,0,00,50.0,,M,0.0,M,,0000*49
$GPGSA,A,1,,,,,,,,,,,,,50.0,50.0,50.0*05
$GPRMC,205553.000,V,,,,,,,310514,,,N*4B
$GPGGA,205554.000,,,,,0,00,50.0,,M,0.0,M,,0000*4E
$GPGSA,A,1,,,,,,,,,,,,,50.0,50.0,50.0*05
$GPRMC,205554.000,V,,,,,,,310514,,,N*4C
$GPGGA,205555.000,4108.2282,N,00334.9366,W,1,03,6.5,1476.0,M,51.7,M,,0000*72
$GPGSA,A,2,16,18,22,,,,,,,,,,6.5,6.5,1.0*3C
$GPGSV,3,1,12,27,74,043,,03,70,323,,19,57,313,,22,53,095,25*79
$GPGSV,3,2,12,16,50,176,28,18,29,052,26,11,25,263,,07,14,289,*73
$GPGSV,3,3,12,08,12,313,,21,11,059,,01,09,244,,30,08,315,*79
$GPRMC,205555.000,A,4108.2282,N,00334.9366,W,38.99,14.76,310514,,,A*7A
$GPGGA,205556.000,4108.2323,N,00334.9131,W,1,04,6.3,1469.3,M,51.7,M,,0000*77
$GPGSA,A,3,16,18,22,21,,,,,,,,,7.2,6.3,3.3*3F
$GPRMC,205556.000,A,4108.2323,N,00334.9131,W,39.07,15.80,310514,,,A*7D
$GPGGA,205557.000,4108.2393,N,00334.9021,W,1,04,6.3,1458.6,M,51.7,M,,0000*7A
$GPGSA,A,3,16,18,22,21,,,,,,,,,7.2,6.3,3.3*3F
$GPRMC,205557.000,A,4108.2393,N,00334.9021,W,39.54,15.66,310514,,,A*79
$GPGGA,205558.000,4108.2539,N,00334.9056,W,1,06,2.2,1460.3,M,51.7,M,,0000*7A
$GPGSA,A,3,16,18,22,27,03,21,,,,,,,3.4,2.2,2.6*3A
$GPRMC,205558.000,A,4108.2539,N,00334.9056,W,41.20,10.94,310514,,,A*74
$GPGGA,205559.000,4108.2681,N,00334.9060,W,1,06,2.2,1463.5,M,51.7,M,,0000*7B
$GPGSA,A,3,16,18,22,27,03,21,,,,,,,3.4,2.2,2.6*3A
$GPRMC,205559.000,A,4108.2681,N,00334.9060,W,42.81,9.10,310514,,,A*4C
$GPGGA,205600.000,4108.2801,N,00334.9051,W,1,06,2.2,1459.8,M,51.7,M,,0000*74
$GPGSA,A,3,16,18,22,27,03,21,,,,,,,3.4,2.2,2.6*3A
$GPGSV,3,1,12,27,74,043,23,03,70,323,23,19,57,313,22,22,53,095,25*79
$GPGSV,3,2,12,16,50,176,28,18,29,052,26,11,25,263,,07,14,289,*73
$GPGSV,3,3,12,08,12,313,,21,11,059,25,01,09,244,,30,08,315,*7E
$GPRMC,205600.000,A,4108.2801,N,00334.9051,W,42.98,8.87,310514,,,A*40
$GPGGA,205601.000,4108.2923,N,00334.9033,W,1,06,2.2,1456.6,M,51.7,M,,0000*71
$GPGSA,A,3,16,18,22,27,03,21,,,,,,,3.4,2.2,2.6*3A
$GPRMC,205601.000,A,4108.2923,N,00334.9033,W,43.94,8.59,310514,,,A*4A
$GPGGA,205602.000,4108.3038,N,00334.9013,W,1,06,2.2,1454.0,M,51.7,M,,0000*76
$GPGSA,A,3,16,18,22,27,03,21,,,,,,,3.4,2.2,2.6*3A
$GPRMC,205602.000,A,4108.3038,N,00334.9013,W,44.02,9.10,310514,,,A*4D
$GPGGA,205603.000,4108.3161,N,00334.9000,W,1,06,2.2,1450.7,M,51.7,M,,0000*7B
$GPGSA,A,3,16,18,22,27,03,21,,,,,,,3.4,2.2,2.6*3A
$GPRMC,205603.000,A,4108.3161,N,00334.9000,W,44.67,9.12,310514,,,A*42
$GPGGA,205604.000,4108.3281,N,00334.8976,W,1,06,2.2,1448.4,M,51.7,M,,0000*72
$GPGSA,A,3,16,18,22,27,03,21,,,,,,,3.4,2.2,2.6*3A
$GPRMC,205604.000,A,4108.3281,N,00334.8976,W,44.94,10.48,310514,,,A*7A
$GPGGA,205605.000,4108.3407,N,00334.8950,W,1,06,2.2,1447.2,M,51.7,M,,0000*76
$GPGSA,A,3,16,18,22,27,03,21,,,,,,,3.4,2.2,2.6*3A
$GPGSV,3,1,12,27,74,043,23,03,70,323,22,19,57,313,,22,53,095,25*78
$GPGSV,3,2,12,16,50,176,27,18,29,052,26,11,25,263,,07,14,289,*7C
$GPGSV,3,3,12,08,12,313,,21,11,059,25,01,09,244,,30,08,315,*7E
$GPRMC,205605.000,A,4108.3407,N,00334.8950,W,45.79,11.12,310514,,,A*7B
$GPGGA,205606.000,4108.3535,N,00334.8916,W,1,06,2.2,1446.9,M,51.7,M,,0000*7D
$GPGSA,A,3,16,18,22,27,03,21,,,,,,,3.4,2.2,2.6*3A
$GPRMC,205606.000,A,4108.3535,N,00334.8916,W,45.75,12.57,310514,,,A*74
$GPGGA,205607.000,4108.3661,N,00334.8874,W,1,06,2.2,1445.7,M,51.7,M,,0000*76
$GPGSA,A,3,16,18,22,27,03,21,,,,,,,3.4,2.2,2.6*3A
$GPRMC,205607.000,A,4108.3661,N,00334.8874,W,45.72,14.41,310514,,,A*74
$GPGGA,205608.000,4108.3790,N,00334.8823,W,1,06,2.2,1446.3,M,51.7,M,,0000*73
$GPGSA,A,3,16,18,22,27,03,21,,,,,,,3.4,2.2,2.6*3A
$GPRMC,205608.000,A,4108.3790,N,00334.8823,W,46.44,15.92,310514,,,A*7F
$GPGGA,205609.000,4108.3913,N,00334.8774,W,1,06,2.2,1444.7,M,51.7,M,,0000*7C
$GPGSA,A,3,16,18,22,27,03,21,,,,,,,3.4,2.2,2.6*3A
$GPRMC,205609.000,A,4108.3913,N,00334.8774,W,46.18,16.07,310514,,,A*70
$GPGGA,205610.000,4108.4032,N,00334.8729,W,1,06,2.2,1442.8,M,51.7,M,,0000*78
$GPGSA,A,3,16,18,22,27,03,21,,,,,,,3.4,2.2,2.6*3A
$GPGSV,3,1,12,27,74,043,24,03,70,323,23,19,57,313,,22,53,095,26*7D
$GPGSV,3,2,12,16,50,176,26,18,29,052,26,11,25,263,23,07,14,289,*7C
$GPGSV,3,3,12,08,12,313,,21,11,059,25,01,09,244,,30,08,315,*7E
$GPRMC,205610.000,A,4108.4032,N,00334.8729,W,45.92,15.62,310514,,,A*7C
$GPGGA,205611.000,4108.4149,N,00334.8682,W,1,06,2.2,1440.6,M,51.7,M,,0000*78
$GPGSA,A,3,16,18,22,27,03,21,,,,,,,3.4,2.2,2.6*3A
$GPRMC,205611.000,A,4108.4149,N,00334.8682,W,45.86,15.34,310514,,,A*76
$GPGGA,205612.000,4108.4270,N,00334.8651,W,1,06,2.2,1437.3,M,51.7,M,,0000*79
$GPGSA,A,3,16,18,22,27,03,21,,,,,,,3.4,2.2,2.6*3A
$GPRMC,205612.000,A,4108.4270,N,00334.8651,W,45.99,13.37,310514,,,A*79
$GPGGA,205613.000,4108.4398,N,00334.8633,W,1,06,2.2,1434.2,M,51.7,M,,0000*79
$GPGSA,A,3,16,18,22,27,03,21,,,,,,,3.4,2.2,2.6*3A
$GPRMC,205613.000,A,4108.4398,N,00334.8633,W,46.13,10.87,310514,,,A*72
$GPGGA,205614.000,4108.4526,N,00334.8610,W,1,06,2.2,1432.3,M,51.7,M,,0000*7B
$GPGSA,A,3,16,18,22,27,03,21,,,,,,,3.4,2.2,2.6*3A
$GPRMC,205614.000,A,4108.4526,N,00334.8610,W,46.01,8.89,310514,,,A*43
$GPGGA,205615.000,4108.4651,N,00334.8591,W,1,06,2.2,1430.0,M,51.7,M,,0000*72
$GPGSA,A,3,16,18,22,27,03,21,,,,,,,3.4,2.2,2.6*3A
$GPGSV,3,1,12,27,74,043,23,03,70,323,23,19,57,313,,22,53,095,27*7B
$GPGSV,3,2,12,16,50,176,26,18,29,052,26,11,25,263,15,07,14,289,*79
$GPGSV,3,3,12,08,12,313,,21,11,059,25,01,09,244,,30,08,315,*7E
$GPRMC,205615.000,A,4108.4651,N,00334.8591,W,46.29,7.06,310514,,,A*49
$GPGGA,205616.000,4108.4781,N,00334.8574,W,1,06,2.2,1427.4,M,51.7,M,,0000*74
$GPGSA,A,3,16,18,22,27,03,21,,,,,,,3.4,2.2,2.6*3A
$GPRMC,205616.000,A,4108.4781,N,00334.8574,W,46.21,5.42,310514,,,A*47
$GPGGA,205617.000,4108.4909,N,00334.8562,W,1,06,2.2,1424.9,M,51.7,M,,0000*72
$GPGSA,A,3,16,18,22,27,03,21,,,,,,,3.4,2.2,2.6*3A
$GPRMC,205617.000,A,4108.4909,N,00334.8562,W,46.39,3.86,310514,,,A*48
$GPGGA,205618.000,4108.5035,N,00334.8556,W,1,06,2.2,1422.5,M,51.7,M,,0000*77
$GPGSA,A,3,16,18,22,27,03,21,,,,,,,3.4,2.2,2.6*3A
$GPRMC,205618.000,A,4108.5035,N,00334.8556,W,46.55,1.19,310514,,,A*49
$GPGGA,205619.000,4108.5166,N,00334.8559,W,1,06,2.2,1421.0,M,51.7,M,,0000*78
$GPGSA,A,3,16,18,22,27,03,21,,,,,,,3.4,2.2,2.6*3A
$GPRMC,205619.000,A,4108.5166,N,00334.8559,W,47.01,359.25,310514,,,A*41
$GPGGA,205620.000,4108.5302,N,00334.8576,W,1,05,2.3,1419.0,M,51.7,M,,0000*76
$GPGSA,A,3,16,18,22,03,21,,,,,,,,3.8,2.3,3.0*35
$GPGSV,3,1,12,27,74,043,12,03,70,323,31,19,57,313,24,22,53,095,28*73
$GPGSV,3,2,12,16,50,176,27,18,29,052,24,11,25,263,,07,14,289,*7E
$GPGSV,3,3,12,08,12,313,16,21,11,059,26,01,09,244,,30,08,315,*7A
$GPRMC,205620.000,A,4108.5302,N,00334.8576,W,46.48,357.24,310514,,,A*45
$GPGGA,205621.000,4108.5438,N,00334.8600,W,1,05,2.3,1417.9,M,51.7,M,,0000*7C
$GPGSA,A,3,16,18,22,03,21,,,,,,,,3.8,2.3,3.0*35
$GPRMC,205621.000,A,4108.5438,N,00334.8600,W,47.41,353.72,310514,,,A*47
$GPGGA,205622.000,4108.5568,N,00334.8640,W,1,06,2.2,1414.1,M,51.7,M,,0000*76
$GPGSA,A,3,16,18,22,27,03,21,,,,,,,3.4,2.2,2.6*3A
$GPRMC,205622.000,A,4108.5568,N,00334.8640,W,47.61,350.80,310514,,,A*48
$GPGGA,205623.000,4108.5698,N,00334.8671,W,1,04,5.0,1412.5,M,51.7,M,,0000*7C
$GPGSA,A,3,16,18,03,21,,,,,,,,,8.7,5.0,7.1*30
$GPRMC,205623.000,A,4108.5698,N,00334.8671,W,48.08,349.02,310514,,,A*45
$GPGGA,205624.000,4108.5831,N,00334.8728,W,1,05,2.3,1408.0,M,51.7,M,,0000*70
$GPGSA,A,3,16,18,22,03,21,,,,,,,,3.8,2.3,3.0*35
$GPRMC,205624.000,A,4108.5831,N,00334.8728,W,49.22,347.14,310514,,,A*42
$GPGGA,205625.000,4108.5958,N,00334.8779,W,1,04,5.0,1406.8,M,51.7,M,,0000*78
$GPGSA,A,3,16,18,03,21,,,,,,,,,8.7,5.0,7.1*30
$GPGSV,3,1,12,27,74,043,12,03,70,323,30,19,57,313,25,22,53,095,16*7E
$GPGSV,3,2,12,16,50,176,17,18,29,052,27,11,25,263,25,07,14,289,*79
$GPGSV,3,3,12,08,12,313,21,21,11,059,26,01,09,244,,30,08,315,23*7F
$GPRMC,205625.000,A,4108.5958,N,00334.8779,W,47.76,344.60,310514,,,A*46
$GPGGA,205626.000,4108.6082,N,00334.8846,W,1,06,2.2,1403.8,M,51.7,M,,0000*77
$GPGSA,A,3,16,18,22,27,03,21,,,,,,,3.4,2.2,2.6*3A
$GPRMC,205626.000,A,4108.6082,N,00334.8846,W,47.28,342.34,310514,,,A*47
$GPGGA,205627.000,4108.6210,N,00334.8918,W,1,06,2.2,1400.5,M,51.7,M,,0000*7B
$GPGSA,A,3,16,18,22,27,03,21,,,,,,,3.4,2.2,2.6*3A
$GPRMC,205627.000,A,4108.6210,N,00334.8918,W,47.41,340.01,310514,,,A*4E
$GPGGA,205628.000,4108.6347,N,00334.8982,W,1,06,2.2,1398.0,M,51.7,M,,0000*77
$GPGSA,A,3,16,18,22,27,03,21,,,,,,,3.4,2.2,2.6*3A
$GPRMC,205628.000,A,4108.6347,N,00334.8982,W,48.14,339.59,310514,,,A*4D
$GPGGA,205629.000,4108.6466,N,00334.9044,W,1,06,2.2,1394.6,M,51.7,M,,0000*7A
$GPGSA,A,3,16,18,22,27,03,21,,,,,,,3.4,2.2,2.6*3A
$GPRMC,205629.000,A,4108.6466,N,00334.9044,W,48.06,339.46,310514,,,A*47
$GPGGA,205630.000,4108.6596,N,00334.9108,W,1,06,2.2,1393.0,M,51.7,M,,0000*74
$GPGSA,A,3,16,18,22,27,03,21,,,,,,,3.4,2.2,2.6*3A
$GPGSV,3,1,12,27,74,043,14,03,70,323,29,19,57,313,26,22,53,095,25*73
$GPGSV,3,2,12,16,50,176,19,18,29,052,25,11,25,263,17,07,14,289,22*74
$GPGSV,3,3,12,08,12,313,22,21,11,059,25,01,09,244,,30,08,315,22*7E
$GPRMC,205630.000,A,4108.6596,N,00334.9108,W,48.64,339.47,310514,,,A*4D
$GPGGA,205631.000,4108.6718,N,00334.9162,W,1,05,4.8,1394.2,M,51.7,M,,0000*77
$GPGSA,A,3,18,22,27,03,21,,,,,,,,6.8,4.8,4.8*30
$GPRMC,205631.000,A,4108.6718,N,00334.9162,W,47.80,339.59,310514,,,A*4E
$GPGGA,205632.000,4108.6841,N,00334.9221,W,1,05,4.8,1392.1,M,51.7,M,,0000*76
$GPGSA,A,3,18,22,27,03,21,,,,,,,,6.8,4.8,4.8*30
$GPRMC,205632.000,A,4108.6841,N,00334.9221,W,47.58,339.09,310514,,,A*4A
$GPGGA,205633.000,4108.6968,N,00334.9283,W,1,06,2.2,1391.8,M,51.7,M,,0000*70
$GPGSA,A,3,16,18,22,27,03,21,,,,,,,3.4,2.2,2.6*3A
$GPRMC,205633.000,A,4108.6968,N,00334.9283,W,47.45,339.07,310514,,,A*4B
$GPGGA,205634.000,4108.7094,N,00334.9350,W,1,06,2.2,1390.8,M,51.7,M,,0000*72
$GPGSA,A,3,16,18,22,27,03,21,,,,,,,3.4,2.2,2.6*3A
$GPRMC,205634.000,A,4108.7094,N,00334.9350,W,47.35,338.66,310514,,,A*49
$GPGGA,205635.000,4108.7222,N,00334.9419,W,1,06,2.2,1388.4,M,51.7,M,,0000*73
$GPGSA,A,3,16,18,22,27,03,21,,,,,,,3.4,2.2,2.6*3A
$GPGSV,3,1,12,27,74,043,21,03,70,323,29,19,57,313,27,22,53,095,25*74
$GPGSV,3,2,12,16,50,176,16,18,29,052,22,11,25,263,19,07,14,289,23*73
$GPGSV,3,3,12,08,12,313,22,21,11,059,15,01,09,244,,30,08,315,22*7D
$GPRMC,205635.000,A,4108.7222,N,00334.9419,W,48.12,338.88,310514,,,A*47
$GPGGA,205636.000,4108.7341,N,00334.9478,W,1,06,2.2,1387.8,M,51.7,M,,0000*70
$GPGSA,A,3,16,18,22,27,03,21,,,,,,,3.4,2.2,2.6*3A
$GPRMC,205636.000,A,4108.7341,N,00334.9478,W,47.22,339.14,310514,,,A*4F
$GPGGA,205637.000,4108.7467,N,00334.9536,W,1,06,2.2,1386.8,M,51.7,M,,0000*78
$GPGSA,A,3,16,18,22,27,03,21,,,,,,,3.4,2.2,2.6*3A
$GPRMC,205637.000,A,4108.7467,N,00334.9536,W,48.33,340.29,310514,,,A*49
$GPGGA,205638.000,4108.7599,N,00334.9596,W,1,05,2.3,1387.8,M,51.7,M,,0000*7E
$GPGSA,A,3,16,18,22,27,03,,,,,,,,4.4,2.3,3.8*30
$GPRMC,205638.000,A,4108.7599,N,00334.9596,W,48.83,340.49,310514,,,A*41
$GPGGA,205639.000,4108.7731,N,00334.9654,W,1,06,2.2,1385.9,M,51.7,M,,0000*73
$GPGSA,A,3,16,18,22,27,03,21,,,,,,,3.4,2.2,2.6*3A
$GPRMC,205639.000,A,4108.7731,N,00334.9654,W,48.79,341.23,310514,,,A*45
$GPGGA,205640.000,4108.7853,N,00334.9714,W,1,05,2.3,1384.5,M,51.7,M,,0000*7C
$GPGSA,A,3,16,18,22,27,03,,,,,,,,4.4,2.3,3.8*30
$GPGSV,3,1,12,27,74,043,20,03,70,323,28,19,57,313,28,22,53,095,26*78
$GPGSV,3,2,12,16,50,176,16,18,29,052,22,11,25,263,20,07,14,289,22*78
$GPGSV,3,3,12,08,12,313,20,21,11,059,,01,09,244,,30,08,315,*7B
$GPRMC,205640.000,A,4108.7853,N,00334.9714,W,47.83,340.32,310514,,,A*4E
$GPGGA,205641.000,4108.7980,N,00334.9766,W,1,05,2.3,1382.8,M,51.7,M,,0000*7C
$GPGSA,A,3,16,18,22,27,03,,,,,,,,4.4,2.3,3.8*30
$GPRMC,205641.000,A,4108.7980,N,00334.9766,W,46.89,340.24,310514,,,A*49
$GPGGA,205642.000,4108.8108,N,00334.9826,W,1,04,2.9,1381.3,M,51.7,M,,0000*70
$GPGSA,A,3,18,22,27,03,,,,,,,,,3.0,2.9,1.0*34
$GPRMC,205642.000,A,4108.8108,N,00334.9826,W,46.71,341.05,310514,,,A*43
$GPGGA,205643.000,4108.8221,N,00334.9886,W,1,05,2.3,1376.6,M,51.7,M,,0000*75
$GPGSA,A,3,16,18,22,27,03,,,,,,,,4.4,2.3,3.8*30
$GPRMC,205643.000,A,4108.8221,N,00334.9886,W,46.44,342.23,310514,,,A*41
$GPGGA,205644.000,4108.8345,N,00334.9942,W,1,05,2.3,1373.2,M,51.7,M,,0000*79
$GPGSA,A,3,16,18,22,27,03,,,,,,,,4.4,2.3,3.8*30
$GPRMC,205644.000,A,4108.8345,N,00334.9942,W,46.97,344.10,310514,,,A*44
$GPGGA,205645.000,4108.8465,N,00334.9992,W,1,05,2.3,1371.2,M,51.7,M,,0000*72
$GPGSA,A,3,16,18,22,27,03,,,,,,,,4.4,2.3,3.8*30
$GPGSV,3,1,12,27,74,043,21,03,70,323,27,19,57,313,29,22,53,095,25*74
$GPGSV,3,2,12,16,50,176,24,18,29,052,22,11,25,263,20,07,14,289,22*79
$GPGSV,3,3,12,08,12,313,22,21,11,059,,01,09,244,,30,08,315,*79
$GPRMC,205645.000,A,4108.8465,N,00334.9992,W,46.81,345.42,310514,,,A*4C
$GPGGA,205646.000,4108.8578,N,00335.0034,W,1,05,2.3,1370.0,M,51.7,M,,0000*72
$GPGSA,A,3,16,18,22,27,03,,,,,,,,4.4,2.3,3.7*3F
$GPRMC,205646.000,A,4108.8578,N,00335.0034,W,46.29,346.99,310514,,,A*48
$GPGGA,205647.000,4108.8695,N,00335.0068,W,1,05,2.3,1369.0,M,51.7,M,,0000*72
$GPGSA,A,3,16,18,22,27,03,,,,,,,,4.4,2.3,3.7*3F
$GPRMC,205647.000,A,4108.8695,N,00335.0068,W,46.01,348.84,310514,,,A*48
$GPGGA,205648.000,4108.8816,N,00335.0094,W,1,05,2.3,1367.6,M,51.7,M,,0000*73
$GPGSA,A,3,16,18,22,27,03,,,,,,,,4.4,2.3,3.7*3F
$GPRMC,205648.000,A,4108.8816,N,00335.0094,W,46.23,351.02,310514,,,A*47
$GPGGA,205649.000,4108.8945,N,00335.0110,W,1,05,2.3,1367.8,M,51.7,M,,0000*76
$GPGSA,A,3,16,18,22,27,03,,,,,,,,4.4,2.3,3.7*3F
$GPRMC,205649.000,A,4108.8945,N,00335.0110,W,47.01,353.37,310514,,,A*49
$GPGGA,205650.000,4108.9082,N,00335.0118,W,1,05,2.3,1369.1,M,51.7,M,,0000*72
$GPGSA,A,3,16,18,22,27,03,,,,,,,,4.4,2.3,3.7*3F
$GPGSV,3,1,12,27,74,043,23,03,70,323,27,19,57,313,24,22,53,095,26*78
$GPGSV,3,2,12,16,50,176,22,18,29,052,23,11,25,263,20,07,14,289,12*7D
$GPGSV,3,3,12,08,12,313,16,21,11,059,,01,09,244,,30,08,315,*7E
$GPRMC,205650.000,A,4108.9082,N,00335.0118,W,48.05,355.20,310514,,,A*41
$GPGGA,205651.000,4108.9217,N,00335.0125,W,1,05,2.3,1367.9,M,51.7,M,,0000*75
$GPGSA,A,3,16,18,22,27,03,,,,,,,,4.4,2.3,3.7*3F
$GPRMC,205651.000,A,4108.9217,N,00335.0125,W,48.43,356.00,310514,,,A*43
$GPGGA,205652.000,4108.9355,N,00335.0132,W,1,05,2.3,1364.0,M,51.7,M,,0000*7D
$GPGSA,A,3,16,18,22,27,03,,,,,,,,4.4,2.3,3.7*3F
$GPRMC,205652.000,A,4108.9355,N,00335.0132,W,48.37,356.31,310514,,,A*40
$GPGGA,205653.000,4108.9490,N,00335.0142,W,1,05,2.3,1361.1,M,51.7,M,,0000*71
$GPGSA,A,3,16,18,22,27,03,,,,,,,,4.4,2.3,3.7*3F
$GPRMC,205653.000,A,4108.9490,N,00335.0142,W,47.67,355.30,310514,,,A*40
$GPGGA,205654.000,4108.9622,N,00335.0158,W,1,05,2.3,1359.3,M,51.7,M,,0000*7F
$GPGSA,A,3,16,18,22,27,03,,,,,,,,4.4,2.3,3.7*3F
$GPRMC,205654.000,A,4108.9622,N,00335.0158,W,47.49,354.33,310514,,,A*49
$GPGGA,205655.000,4108.9748,N,00335.0173,W,1,05,2.3,1358.1,M,51.7,M,,0000*79
$GPGSA,A,3,16,18,22,27,03,,,,,,,,4.4,2.3,3.7*3F
$GPGSV,3,1,12,27,74,043,22,03,70,323,28,19,57,313,25,22,53,095,27*76
$GPGSV,3,2,12,16,50,176,23,18,29,052,24,11,25,263,11,07,14,289,*7A
$GPGSV,3,3,12,08,12,313,,21,11,059,,01,09,244,,30,08,315,*79
$GPRMC,205655.000,A,4108.9748,N,00335.0173,W,47.65,353.90,310514,,,A*4C
$GPGGA,205656.000,4108.9881,N,00335.0193,W,1,05,2.3,1354.0,M,51.7,M,,0000*73
$GPGSA,A,3,16,18,22,27,03,,,,,,,,4.4,2.3,3.7*3F
$GPRMC,205656.000,A,4108.9881,N,00335.0193,W,48.44,354.21,310514,,,A*4A
$GPGGA,205657.000,4109.0014,N,00335.0218,W,1,05,2.3,1349.5,M,51.7,M,,0000*77
$GPGSA,A,3,16,18,22,27,03,,,,,,,,4.4,2.3,3.7*3F
$GPRMC,205657.000,A,4109.0014,N,00335.0218,W,47.85,352.97,310514,,,A*4E
$GPGGA,205658.000,4109.0153,N,00335.0240,W,1,05,2.3,1347.6,M,51.7,M,,0000*7A
$GPGSA,A,3,16,18,22,27,03,,,,,,,,4.4,2.3,3.7*3F
$GPRMC,205658.000,A,4109.0153,N,00335.0240,W,47.90,352.03,310514,,,A*47
$GPGGA,205659.000,4109.0292,N,00335.0263,W,1,05,2.3,1345.8,M,51.7,M,,0000*78
$GPGSA,A,3,16,18,22,27,03,,,,,,,,4.4,2.3,3.7*3F
$GPRMC,205659.000,A,4109.0292,N,00335.0263,W,48.34,351.57,310514,,,A*4A
$GPGGA,205700.000,4109.0429,N,00335.0289,W,1,05,2.3,1342.6,M,51.7,M,,0000*7E
$GPGSA,A,3,16,18,22,27,03,,,,,,,,4.4,2.3,3.7*3F
$GPGSV,3,1,12,27,74,043,15,03,70,323,28,19,57,313,25,22,53,095,28*7D
$GPGSV,3,2,12,16,50,176,16,18,29,052,22,11,25,263,,07,14,289,*7A
$GPGSV,3,3,12,08,12,313,,21,11,059,,01,09,244,,30,08,315,*79
$GPRMC,205700.000,A,4109.0429,N,00335.0289,W,48.02,351.00,310514,,,A*42

