$GPGGA,104300.00,4227.484484,N,00524.373539,W,1,09,0.5,802.1,M,52.0,M,,*70
$GPGSA,A,3,02,05,07,08,09,10,15,21,26,28,,,1.9,1.1,1.6*34
$GPRMC,104300.00,A,4227.484484,N,00524.373539,W,056.0,110.7,070513,,,A*46
$GPGGA,104301.00,4227.478530,N,00524.354067,W,1,08,0.5,802.1,M,52.0,M,,*76
$GPGSA,A,3,02,05,07,08,09,10,15,21,26,28,,,1.9,1.1,1.6*34
$GPRMC,104301.00,A,4227.478530,N,00524.354067,W,056.2,111.3,070513,,,A*46
$GPGGA,104302.00,4227.472650,N,00524.334416,W,1,08,0.5,802.3,M,52.0,M,,*7C
$GPGSA,A,3,02,05,07,08,09,10,15,21,26,28,,,1.8,1.3,1.3*32
$GPRMC,104302.00,A,4227.472650,N,00524.334416,W,056.3,111.2,070513,,,A*4E
$GPGGA,104303.00,4227.466868,N,00524.314624,W,1,09,0.5,802.4,M,52.0,M,,*7A
$GPGSA,A,3,02,05,07,08,09,10,15,21,26,28,,,1.9,1.1,1.6*34
$GPRMC,104303.00,A,4227.466868,N,00524.314624,W,056.5,111.6,070513,,,A*4C
$GPGGA,104304.00,4227.460863,N,00524.295142,W,1,10,0.5,802.3,M,52.0,M,,*70
$GPGSA,A,3,02,05,07,08,09,10,15,21,26,28,,,1.9,1.1,1.6*34
$GPRMC,104304.00,A,4227.460863,N,00524.295142,W,056.2,111.9,070513,,,A*41
$GPGGA,104305.00,4227.454926,N,00524.276085,W,1,09,0.5,802.3,M,52.0,M,,*79
$GPGSA,A,3,02,05,07,08,09,10,15,21,26,28,,,1.6,1.1,1.3*3E
$GPRMC,104305.00,A,4227.454926,N,00524.276085,W,055.3,112.1,070513,,,A*49
$GPGGA,104306.00,4227.448957,N,00524.257341,W,1,09,0.5,802.2,M,52.0,M,,*78
$GPGSA,A,3,02,05,07,08,09,10,15,21,26,28,,,1.9,1.1,1.6*34
$GPRMC,104306.00,A,4227.448957,N,00524.257341,W,054.9,112.9,070513,,,A*4A
$GPGGA,104307.00,4227.442672,N,00524.238822,W,1,09,0.5,802.0,M,52.0,M,,*7E
$GPGSA,A,3,02,05,07,08,09,10,15,21,26,28,,,2.0,1.2,1.6*3D
$GPRMC,104307.00,A,4227.442672,N,00524.238822,W,054.8,113.3,070513,,,A*44
$GPGGA,104308.00,4227.436290,N,00524.220269,W,1,08,0.5,802.0,M,52.0,M,,*77
$GPGSA,A,3,02,05,07,08,09,10,15,21,26,28,,,1.8,1.3,1.3*32
$GPRMC,104308.00,A,4227.436290,N,00524.220269,W,055.0,113.7,070513,,,A*41
$GPGGA,104309.00,4227.429754,N,00524.201615,W,1,08,0.5,801.9,M,52.0,M,,*73
$GPGSA,A,3,02,05,07,08,09,10,15,21,26,28,,,1.8,1.3,1.3*32
$GPRMC,104309.00,A,4227.429754,N,00524.201615,W,055.1,114.0,070513,,,A*4E
$GPGGA,104310.00,4227.423066,N,00524.182740,W,1,08,0.5,801.9,M,52.0,M,,*7E
$GPGSA,A,3,02,05,07,08,09,10,15,21,26,28,,,1.8,1.3,1.3*32
$GPRMC,104310.00,A,4227.423066,N,00524.182740,W,055.5,114.2,070513,,,A*45
$GPGGA,104311.00,4227.416231,N,00524.163596,W,1,08,0.5,801.9,M,52.0,M,,*7F
$GPGSA,A,3,02,05,07,08,09,10,15,21,26,28,,,1.8,1.3,1.3*32
$GPRMC,104311.00,A,4227.416231,N,00524.163596,W,055.9,114.1,070513,,,A*4B
$GPGGA,104312.00,4227.409057,N,00524.144327,W,1,08,0.5,802.0,M,52.0,M,,*73
$GPGSA,A,3,02,05,07,08,09,10,15,21,26,28,,,1.8,1.3,1.3*32
$GPRMC,104312.00,A,4227.409057,N,00524.144327,W,056.3,114.6,070513,,,A*43
$GPGGA,104313.00,4227.401813,N,00524.124780,W,1,08,0.5,802.1,M,52.0,M,,*7C
$GPGSA,A,3,02,05,07,08,09,10,15,21,26,28,,,1.8,1.3,1.3*32
$GPRMC,104313.00,A,4227.401813,N,00524.124780,W,056.7,114.9,070513,,,A*46
$GPGGA,104314.00,4227.394453,N,00524.105018,W,1,08,0.5,802.2,M,52.0,M,,*7E
$GPGSA,A,3,02,05,07,08,09,10,15,21,26,28,,,1.8,1.3,1.3*32
$GPRMC,104314.00,A,4227.394453,N,00524.105018,W,057.1,115.5,070513,,,A*4D
$GPGGA,104315.00,4227.387414,N,00524.084666,W,1,09,0.5,802.5,M,52.0,M,,*7F
$GPGSA,A,3,02,05,07,08,09,10,15,21,26,28,,,1.9,1.1,1.6*34
$GPRMC,104315.00,A,4227.387414,N,00524.084666,W,057.5,115.3,070513,,,A*48
$GPGGA,104316.00,4227.380074,N,00524.064418,W,1,09,0.5,802.7,M,52.0,M,,*7E
$GPGSA,A,3,02,05,07,08,09,10,15,21,26,28,,,1.9,1.1,1.6*34
$GPRMC,104316.00,A,4227.380074,N,00524.064418,W,057.8,115.7,070513,,,A*42
$GPGGA,104317.00,4227.372876,N,00524.044224,W,1,08,0.5,802.8,M,52.0,M,,*7D
$GPGSA,A,3,02,05,07,08,09,10,15,21,26,28,,,1.9,1.1,1.6*34
$GPRMC,104317.00,A,4227.372876,N,00524.044224,W,058.0,116.6,070513,,,A*4A
$GPGGA,104318.00,4227.365069,N,00524.024825,W,1,08,0.5,802.7,M,52.0,M,,*70
$GPGSA,A,3,02,05,07,08,09,10,15,21,26,28,,,1.9,1.1,1.6*34
$GPRMC,104318.00,A,4227.365069,N,00524.024825,W,057.9,117.7,070513,,,A*4E
$GPGGA,104319.00,4227.357682,N,00524.005264,W,1,08,0.5,803.0,M,52.0,M,,*79
$GPGSA,A,3,02,05,07,08,09,10,15,21,26,28,,,1.9,1.1,1.6*34
$GPRMC,104319.00,A,4227.357682,N,00524.005264,W,057.9,117.8,070513,,,A*4E
$GPGGA,104320.00,4227.349903,N,00523.986014,W,1,08,0.5,802.9,M,52.0,M,,*72
$GPGSA,A,3,02,05,07,08,09,10,15,21,26,28,,,1.9,1.1,1.6*34
$GPRMC,104320.00,A,4227.349903,N,00523.986014,W,058.0,119.3,070513,,,A*4E
$GPGGA,104321.00,4227.341979,N,00523.966763,W,1,08,0.5,802.7,M,52.0,M,,*71
$GPGSA,A,3,02,05,07,08,09,10,15,21,26,28,,,2.4,1.5,1.8*30
$GPRMC,104321.00,A,4227.341979,N,00523.966763,W,058.1,120.0,070513,,,A*4B
$GPGGA,104322.00,4227.333766,N,00523.947690,W,1,08,0.5,802.5,M,52.0,M,,*7B
$GPGSA,A,3,02,05,07,08,09,10,15,21,26,28,,,1.9,1.1,1.6*34
$GPRMC,104322.00,A,4227.333766,N,00523.947690,W,058.3,120.8,070513,,,A*49
$GPGGA,104323.00,4227.325440,N,00523.928655,W,1,08,0.5,802.3,M,52.0,M,,*7C
$GPGSA,A,3,02,05,07,08,09,10,15,21,26,28,,,1.9,1.1,1.6*34
$GPRMC,104323.00,A,4227.325440,N,00523.928655,W,058.6,121.7,070513,,,A*43
$GPGGA,104324.00,4227.316623,N,00523.909882,W,1,08,0.5,802.2,M,52.0,M,,*7A
$GPGSA,A,3,02,05,07,08,09,10,15,21,26,28,,,1.9,1.1,1.6*34
$GPRMC,104324.00,A,4227.316623,N,00523.909882,W,058.8,122.7,070513,,,A*49
$GPGGA,104325.00,4227.307430,N,00523.891259,W,1,08,0.5,802.2,M,52.0,M,,*77
$GPGSA,A,3,02,05,07,08,09,10,15,21,26,28,,,1.9,1.1,1.6*34
$GPRMC,104325.00,A,4227.307430,N,00523.891259,W,059.1,124.1,070513,,,A*4C
$GPGGA,104326.00,4227.298029,N,00523.872631,W,1,08,0.5,802.2,M,52.0,M,,*78
$GPGSA,A,3,02,05,07,08,09,10,15,21,26,28,,,1.9,1.1,1.6*34
$GPRMC,104326.00,A,4227.298029,N,00523.872631,W,059.4,125.0,070513,,,A*46
$GPGGA,104327.00,4227.288114,N,00523.854372,W,1,08,0.5,802.3,M,52.0,M,,*70
$GPGSA,A,3,02,05,07,08,09,10,15,21,26,28,,,1.9,1.1,1.6*34
$GPRMC,104327.00,A,4227.288114,N,00523.854372,W,059.6,126.2,070513,,,A*4C
$GPGGA,104328.00,4227.277959,N,00523.836474,W,1,08,0.5,802.5,M,52.0,M,,*7D
$GPGSA,A,3,02,05,07,08,09,10,15,21,26,28,,,1.9,1.1,1.6*34
$GPRMC,104328.00,A,4227.277959,N,00523.836474,W,059.5,127.4,070513,,,A*43
$GPGGA,104329.00,4227.267617,N,00523.819071,W,1,08,0.5,802.7,M,52.0,M,,*76
$GPGSA,A,3,02,05,07,08,09,10,15,21,26,28,,,1.9,1.1,1.6*34
$GPRMC,104329.00,A,4227.267617,N,00523.819071,W,059.3,128.6,070513,,,A*41
$GPGGA,104330.00,4227.257095,N,00523.802058,W,1,08,0.5,802.9,M,52.0,M,,*7E
$GPGSA,A,3,02,05,07,08,09,10,15,21,26,28,,,1.9,1.1,1.6*34
$GPRMC,104330.00,A,4227.257095,N,00523.802058,W,059.1,129.6,070513,,,A*44
$GPGGA,104331.00,4227.246598,N,00523.785159,W,1,09,0.5,803.1,M,52.0,M,,*7F
$GPGSA,A,3,02,05,07,08,09,10,15,21,26,28,,,1.9,1.1,1.6*34
$GPRMC,104331.00,A,4227.246598,N,00523.785159,W,059.1,130.6,070513,,,A*45
$GPGGA,104332.00,4227.235751,N,00523.768570,W,1,09,0.5,803.1,M,52.0,M,,*73
$GPGSA,A,3,02,05,07,08,09,10,15,21,26,28,,,1.9,1.1,1.6*34
$GPRMC,104332.00,A,4227.235751,N,00523.768570,W,059.1,131.4,070513,,,A*4A
$GPGGA,104333.00,4227.224645,N,00523.752209,W,1,09,0.5,803.4,M,52.0,M,,*73
$GPGSA,A,3,02,05,07,08,09,10,15,21,26,28,,,1.9,1.1,1.6*34
$GPRMC,104333.00,A,4227.224645,N,00523.752209,W,059.2,132.5,070513,,,A*4E
$GPGGA,104334.00,4227.213409,N,00523.735966,W,1,09,0.5,803.7,M,52.0,M,,*7A
$GPGSA,A,3,02,05,07,08,09,10,15,21,26,28,,,1.9,1.1,1.6*34
$GPRMC,104334.00,A,4227.213409,N,00523.735966,W,059.2,133.3,070513,,,A*43
$GPGGA,104335.00,4227.201801,N,00523.720218,W,1,09,0.5,804.1,M,52.0,M,,*7B
$GPGSA,A,3,02,05,07,08,09,10,15,21,26,28,,,1.9,1.1,1.6*34
$GPRMC,104335.00,A,4227.201801,N,00523.720218,W,059.1,134.3,070513,,,A*47
$GPGGA,104336.00,4227.190057,N,00523.704601,W,1,09,0.5,804.4,M,52.0,M,,*77
$GPGSA,A,3,02,05,07,08,09,10,15,21,26,28,,,1.9,1.1,1.6*34
$GPRMC,104336.00,A,4227.190057,N,00523.704601,W,059.0,135.2,070513,,,A*4F
$GPGGA,104337.00,4227.177992,N,00523.689384,W,1,09,0.5,804.4,M,52.0,M,,*73
$GPGSA,A,3,02,05,07,08,09,10,15,21,26,28,,,1.5,1.0,1.0*3F
$GPRMC,104337.00,A,4227.177992,N,00523.689384,W,059.1,135.9,070513,,,A*41
$GPGGA,104338.00,4227.166006,N,00523.674080,W,1,08,0.5,804.3,M,52.0,M,,*7B
$GPGSA,A,3,02,05,07,08,09,10,15,21,26,28,,,1.6,1.0,1.2*3E
$GPRMC,104338.00,A,4227.166006,N,00523.674080,W,059.0,136.5,070513,,,A*41
$GPGGA,104339.00,4227.154037,N,00523.658796,W,1,08,0.5,804.5,M,52.0,M,,*71
$GPGSA,A,3,02,05,07,08,09,15,21,26,28,,,,1.6,1.1,1.2*3E
$GPRMC,104339.00,A,4227.154037,N,00523.658796,W,059.1,136.7,070513,,,A*4E
$GPGGA,104340.00,4227.141867,N,00523.643867,W,1,09,0.5,805.0,M,52.0,M,,*78
$GPGSA,A,3,02,05,07,08,09,15,21,26,28,,,,1.6,1.1,1.2*3E
$GPRMC,104340.00,A,4227.141867,N,00523.643867,W,059.1,137.2,070513,,,A*46
$GPGGA,104341.00,4227.129603,N,00523.629103,W,1,08,0.5,805.4,M,52.0,M,,*79
$GPGSA,A,3,02,05,07,08,09,10,15,21,26,28,,,1.6,1.0,1.2*3E
$GPRMC,104341.00,A,4227.129603,N,00523.629103,W,059.1,137.3,070513,,,A*43
$GPGGA,104342.00,4227.117284,N,00523.614435,W,1,08,0.5,805.7,M,52.0,M,,*71
$GPGSA,A,3,02,05,07,08,09,10,15,21,26,28,,,1.6,1.0,1.2*3E
$GPRMC,104342.00,A,4227.117284,N,00523.614435,W,059.2,137.5,070513,,,A*4D
$GPGGA,104343.00,4227.104926,N,00523.599851,W,1,08,0.5,805.9,M,52.0,M,,*77
$GPGSA,A,3,02,05,07,08,09,10,15,21,26,28,,,1.6,1.0,1.2*3E
$GPRMC,104343.00,A,4227.104926,N,00523.599851,W,059.3,138.0,070513,,,A*4E
$GPGGA,104344.00,4227.092542,N,00523.585325,W,1,08,0.5,806.2,M,52.0,M,,*7D
$GPGSA,A,3,02,05,07,08,09,10,15,21,26,28,,,1.6,1.0,1.2*3E
$GPRMC,104344.00,A,4227.092542,N,00523.585325,W,059.4,138.0,070513,,,A*4B
$GPGGA,104345.00,4227.080156,N,00523.570802,W,1,08,0.5,806.5,M,52.0,M,,*7D
$GPGSA,A,3,02,05,07,08,09,10,15,21,26,28,,,1.6,1.0,1.2*3E
$GPRMC,104345.00,A,4227.080156,N,00523.570802,W,059.4,137.9,070513,,,A*4A
$GPGGA,104346.00,4227.067844,N,00523.556276,W,1,08,0.5,806.8,M,52.0,M,,*7D
$GPGSA,A,3,02,05,07,08,09,10,15,21,26,28,,,1.6,1.0,1.2*3E
$GPRMC,104346.00,A,4227.067844,N,00523.556276,W,059.3,137.9,070513,,,A*40
$GPGGA,104347.00,4227.055594,N,00523.541633,W,1,08,0.5,807.1,M,52.0,M,,*76
$GPGSA,A,3,02,05,07,08,09,10,15,21,26,28,,,1.6,1.0,1.2*3E
$GPRMC,104347.00,A,4227.055594,N,00523.541633,W,059.3,137.6,070513,,,A*4C
$GPGGA,104348.00,4227.043390,N,00523.526882,W,1,08,0.5,807.4,M,52.0,M,,*7C
$GPGSA,A,3,02,05,07,08,09,10,15,21,26,28,,,1.6,1.0,1.2*3E
$GPRMC,104348.00,A,4227.043390,N,00523.526882,W,059.3,137.5,070513,,,A*40
$GPGGA,104349.00,4227.031184,N,00523.512004,W,1,08,0.5,807.6,M,52.0,M,,*7C
$GPGSA,A,3,02,05,07,08,09,10,15,21,26,28,,,1.6,1.0,1.2*3E
$GPRMC,104349.00,A,4227.031184,N,00523.512004,W,059.4,137.3,070513,,,A*43
$GPGGA,104350.00,4227.018945,N,00523.496947,W,1,09,0.5,807.9,M,52.0,M,,*77
$GPGSA,A,3,02,05,07,08,09,10,15,21,26,28,,,1.9,1.1,1.6*34
$GPRMC,104350.00,A,4227.018945,N,00523.496947,W,059.5,137.2,070513,,,A*46
$GPGGA,104351.00,4227.006728,N,00523.481845,W,1,08,0.5,808.3,M,52.0,M,,*7D
$GPGSA,A,3,02,05,07,08,09,10,15,21,26,28,40,,1.6,1.0,1.2*3A
$GPRMC,104351.00,A,4227.006728,N,00523.481845,W,059.5,137.1,070513,,,A*4B
$GPGGA,104352.00,4226.994593,N,00523.466652,W,1,08,0.5,808.5,M,52.0,M,,*78
$GPGSA,A,3,02,05,07,08,09,10,15,21,26,28,40,,1.6,1.0,1.2*3A
$GPRMC,104352.00,A,4226.994593,N,00523.466652,W,059.5,136.4,070513,,,A*4C
$GPGGA,104353.00,4226.982722,N,00523.451055,W,1,10,0.5,808.9,M,52.0,M,,*76
$GPGSA,A,3,02,05,07,08,09,10,15,21,26,28,40,,1.9,1.1,1.5*33
$GPRMC,104353.00,A,4226.982722,N,00523.451055,W,059.5,135.6,070513,,,A*46
$GPGGA,104354.00,4226.970935,N,00523.435382,W,1,08,0.5,809.2,M,52.0,M,,*7C
$GPGSA,A,3,02,05,07,08,09,10,15,21,26,28,40,,1.6,1.0,1.2*3A
$GPRMC,104354.00,A,4226.970935,N,00523.435382,W,059.4,134.6,070513,,,A*4F
$GPGGA,104355.00,4226.959491,N,00523.419240,W,1,09,0.5,809.5,M,52.0,M,,*72
$GPGSA,A,3,02,05,07,08,09,10,15,21,26,28,40,,1.6,1.0,1.2*3A
$GPRMC,104355.00,A,4226.959491,N,00523.419240,W,059.4,133.7,070513,,,A*41
$GPGGA,104356.00,4226.948165,N,00523.403046,W,1,08,0.5,809.8,M,52.0,M,,*7C
$GPGSA,A,3,02,05,07,08,09,10,15,21,26,28,,,1.6,1.0,1.2*3E
$GPRMC,104356.00,A,4226.948165,N,00523.403046,W,059.2,132.8,070513,,,A*4B
$GPGGA,104357.00,4226.937218,N,00523.386538,W,1,09,0.5,810.2,M,52.0,M,,*79
$GPGSA,A,3,02,05,07,08,09,10,15,21,26,28,,,1.9,1.1,1.5*37
$GPRMC,104357.00,A,4226.937218,N,00523.386538,W,058.8,132.1,070513,,,A*4F
$GPGGA,104358.00,4226.926466,N,00523.370225,W,1,09,0.5,810.5,M,52.0,M,,*7C
$GPGSA,A,3,02,05,07,08,09,10,15,21,26,28,,,1.9,1.1,1.5*37
$GPRMC,104358.00,A,4226.926466,N,00523.370225,W,058.0,131.5,070513,,,A*42
$GPGGA,104359.00,4226.916152,N,00523.353991,W,1,09,0.5,810.7,M,52.0,M,,*7B
$GPGSA,A,3,02,05,07,08,09,10,15,21,26,28,,,1.9,1.1,1.5*37
$GPRMC,104359.00,A,4226.916152,N,00523.353991,W,057.0,130.7,070513,,,A*4B
$GPGGA,104400.00,4226.905979,N,00523.337877,W,1,08,0.5,810.9,M,52.0,M,,*77
$GPGSA,A,3,02,05,07,08,09,10,15,21,26,28,,,1.9,1.3,1.3*33
$GPRMC,104400.00,A,4226.905979,N,00523.337877,W,056.5,130.2,070513,,,A*49
$GPGGA,104401.00,4226.896094,N,00523.321648,W,1,08,0.5,811.1,M,52.0,M,,*7B
$GPGSA,A,3,02,05,07,08,09,10,15,21,26,28,,,1.9,1.3,1.3*33
$GPRMC,104401.00,A,4226.896094,N,00523.321648,W,056.1,129.6,070513,,,A*44
$GPGGA,104402.00,4226.886299,N,00523.305488,W,1,09,0.5,811.2,M,52.0,M,,*7C
$GPGSA,A,3,02,05,07,08,09,10,15,21,26,28,,,1.9,1.1,1.5*37
$GPRMC,104402.00,A,4226.886299,N,00523.305488,W,056.0,129.2,070513,,,A*44
$GPGGA,104403.00,4226.876558,N,00523.289243,W,1,08,0.5,811.3,M,52.0,M,,*7C
$GPGSA,A,3,02,05,07,08,09,10,15,21,26,28,,,2.0,1.2,1.6*3D
$GPRMC,104403.00,A,4226.876558,N,00523.289243,W,056.0,128.7,070513,,,A*40
$GPGGA,104404.00,4226.867102,N,00523.272498,W,1,08,0.5,811.3,M,52.0,M,,*74
$GPGSA,A,3,02,05,07,08,09,10,15,21,26,28,,,1.9,1.3,1.3*33
$GPRMC,104404.00,A,4226.867102,N,00523.272498,W,056.2,127.9,070513,,,A*4B
$GPGGA,104405.00,4226.857645,N,00523.255629,W,1,08,0.5,811.3,M,52.0,M,,*7F
$GPGSA,A,3,02,05,07,08,09,10,15,21,26,28,,,1.9,1.3,1.3*33
$GPRMC,104405.00,A,4226.857645,N,00523.255629,W,056.3,127.2,070513,,,A*4A
$GPGGA,104406.00,4226.848387,N,00523.238440,W,1,08,0.5,811.3,M,52.0,M,,*7F
$GPGSA,A,3,02,05,07,08,09,10,15,21,26,28,,,1.9,1.3,1.3*33
$GPRMC,104406.00,A,4226.848387,N,00523.238440,W,056.4,126.6,070513,,,A*48
$GPGGA,104407.00,4226.839186,N,00523.221317,W,1,09,0.5,811.3,M,52.0,M,,*77
$GPGSA,A,3,02,05,07,08,09,10,15,21,26,28,,,2.0,1.2,1.6*3D
$GPRMC,104407.00,A,4226.839186,N,00523.221317,W,056.4,125.7,070513,,,A*43
$GPGGA,104408.00,4226.830295,N,00523.203881,W,1,09,0.5,811.2,M,52.0,M,,*75
$GPGSA,A,3,02,05,07,08,09,10,15,21,26,28,,,2.0,1.2,1.6*3D
$GPRMC,104408.00,A,4226.830295,N,00523.203881,W,056.5,124.8,070513,,,A*4F
$GPGGA,104409.00,4226.821461,N,00523.186400,W,1,10,0.5,811.1,M,52.0,M,,*79
$GPGSA,A,3,02,05,07,08,09,10,15,21,26,28,,,1.9,1.1,1.5*37
$GPRMC,104409.00,A,4226.821461,N,00523.186400,W,056.5,124.3,070513,,,A*43
$GPGGA,104410.00,4226.812680,N,00523.168886,W,1,09,0.5,810.9,M,52.0,M,,*7F
$GPGSA,A,3,02,05,07,08,09,10,15,21,26,28,,,2.0,1.2,1.6*3D
$GPRMC,104410.00,A,4226.812680,N,00523.168886,W,056.5,123.9,070513,,,A*49
$GPGGA,104411.00,4226.804233,N,00523.151226,W,1,09,0.5,810.9,M,52.0,M,,*7F
$GPGSA,A,3,02,05,07,08,09,10,15,21,26,28,,,2.0,1.2,1.6*3D
$GPRMC,104411.00,A,4226.804233,N,00523.151226,W,056.3,123.2,070513,,,A*44
$GPGGA,104412.00,4226.795878,N,00523.133768,W,1,08,0.5,810.8,M,52.0,M,,*75
$GPGSA,A,3,02,05,07,08,09,10,15,21,26,28,,,2.0,1.2,1.6*3D
$GPRMC,104412.00,A,4226.795878,N,00523.133768,W,055.8,122.4,070513,,,A*41
$GPGGA,104413.00,4226.787930,N,00523.116288,W,1,09,0.5,810.7,M,52.0,M,,*78
$GPGSA,A,3,02,05,07,08,09,10,15,21,26,28,,,1.9,1.1,1.5*37
$GPRMC,104413.00,A,4226.787930,N,00523.116288,W,055.1,121.8,070513,,,A*44
$GPGGA,104414.00,4226.780060,N,00523.099014,W,1,08,0.5,810.7,M,52.0,M,,*74
$GPGSA,A,3,02,05,07,08,09,10,15,21,26,28,,,2.0,1.2,1.6*3D
$GPRMC,104414.00,A,4226.780060,N,00523.099014,W,054.7,121.3,070513,,,A*45
$GPGGA,104415.00,4226.772406,N,00523.081879,W,1,08,0.5,810.7,M,52.0,M,,*76
$GPGSA,A,3,02,05,07,08,09,10,15,21,26,28,,,1.6,1.0,1.2*3E
$GPRMC,104415.00,A,4226.772406,N,00523.081879,W,054.1,120.9,070513,,,A*4A
$GPGGA,104416.00,4226.765152,N,00523.064458,W,1,08,0.5,810.7,M,52.0,M,,*73
$GPGSA,A,3,02,05,07,08,09,10,15,21,26,28,,,2.0,1.2,1.6*3D
$GPRMC,104416.00,A,4226.765152,N,00523.064458,W,053.8,119.5,070513,,,A*47
$GPGGA,104417.00,4226.758076,N,00523.046952,W,1,08,0.5,810.8,M,52.0,M,,*73
$GPGSA,A,3,02,05,07,08,09,10,15,21,26,28,,,2.0,1.2,1.6*3D
$GPRMC,104417.00,A,4226.758076,N,00523.046952,W,053.6,118.5,070513,,,A*47
$GPGGA,104418.00,4226.751145,N,00523.029337,W,1,09,0.5,810.9,M,52.0,M,,*74
$GPGSA,A,3,02,05,07,08,09,10,15,21,26,28,,,1.9,1.1,1.5*37
$GPRMC,104418.00,A,4226.751145,N,00523.029337,W,053.4,118.0,070513,,,A*47
$GPGGA,104419.00,4226.744493,N,00523.011476,W,1,09,0.5,811.1,M,52.0,M,,*7F
$GPGSA,A,3,02,05,07,08,09,10,15,21,26,28,,,1.9,1.1,1.5*37
$GPRMC,104419.00,A,4226.744493,N,00523.011476,W,053.4,117.0,070513,,,A*4A
$GPGGA,104420.00,4226.737886,N,00522.993472,W,1,10,0.5,811.2,M,52.0,M,,*74
$GPGSA,A,3,02,05,07,08,09,10,15,21,26,28,,,1.9,1.1,1.5*37
$GPRMC,104420.00,A,4226.737886,N,00522.993472,W,053.4,116.1,070513,,,A*4A
$GPGGA,104421.00,4226.731487,N,00522.975285,W,1,09,0.5,811.4,M,52.0,M,,*76
$GPGSA,A,3,02,05,07,08,09,10,15,21,26,28,,,1.8,1.2,1.3*33
$GPRMC,104421.00,A,4226.731487,N,00522.975285,W,053.6,115.4,070513,,,A*42
$GPGGA,104422.00,4226.725120,N,00522.957038,W,1,09,0.5,811.7,M,52.0,M,,*7F
$GPGSA,A,3,02,05,07,08,09,10,15,21,26,28,,,2.0,1.2,1.6*3D
$GPRMC,104422.00,A,4226.725120,N,00522.957038,W,053.7,115.0,070513,,,A*4D
$GPGGA,104423.00,4226.719024,N,00522.938631,W,1,09,0.5,812.1,M,52.0,M,,*77
$GPGSA,A,3,02,05,07,08,09,10,15,21,26,28,,,1.8,1.2,1.3*33
$GPRMC,104423.00,A,4226.719024,N,00522.938631,W,053.8,114.4,070513,,,A*4A
$GPGGA,104424.00,4226.713316,N,00522.919949,W,1,10,0.5,812.7,M,52.0,M,,*75
$GPGSA,A,3,02,05,07,08,09,10,15,21,26,28,,,1.9,1.1,1.5*37
$GPRMC,104424.00,A,4226.713316,N,00522.919949,W,053.8,113.2,070513,,,A*47
$GPGGA,104425.00,4226.707934,N,00522.901067,W,1,08,0.5,813.3,M,52.0,M,,*7B
$GPGSA,A,3,02,05,07,08,09,10,15,21,26,28,,,1.9,1.1,1.5*37
$GPRMC,104425.00,A,4226.707934,N,00522.901067,W,053.7,112.0,070513,,,A*49
$GPGGA,104426.00,4226.702851,N,00522.882022,W,1,08,0.5,813.9,M,52.0,M,,*7E
$GPGSA,A,3,02,05,07,08,09,10,15,21,26,28,,,1.9,1.1,1.5*37
$GPRMC,104426.00,A,4226.702851,N,00522.882022,W,053.7,110.5,070513,,,A*41
$GPGGA,104427.00,4226.698095,N,00522.862802,W,1,09,0.5,814.6,M,52.0,M,,*70
$GPGSA,A,3,02,05,07,08,09,10,15,21,26,28,,,1.9,1.1,1.5*37
$GPRMC,104427.00,A,4226.698095,N,00522.862802,W,053.7,108.9,070513,,,A*43
$GPGGA,104428.00,4226.693341,N,00522.843582,W,1,08,0.5,815.3,M,52.0,M,,*7D
$GPGSA,A,3,02,05,07,08,09,10,15,21,26,28,,,1.9,1.1,1.5*37
$GPRMC,104428.00,A,4226.693341,N,00522.843582,W,053.6,108.7,070513,,,A*44
$GPGGA,104429.00,4226.688654,N,00522.824332,W,1,08,0.5,816.0,M,52.0,M,,*7B
$GPGSA,A,3,02,05,07,08,09,10,15,21,26,28,,,2.0,1.2,1.6*3D
$GPRMC,104429.00,A,4226.688654,N,00522.824332,W,053.6,108.2,070513,,,A*47
$GPGGA,104430.00,4226.684334,N,00522.804892,W,1,08,0.5,816.7,M,52.0,M,,*78
$GPGSA,A,3,02,05,07,08,09,10,15,21,26,28,,,2.0,1.2,1.6*3D
$GPRMC,104430.00,A,4226.684334,N,00522.804892,W,053.7,107.8,070513,,,A*47
$GPGGA,104431.00,4226.680169,N,00522.785408,W,1,08,0.5,817.5,M,52.0,M,,*7D
$GPGSA,A,3,02,05,07,08,09,10,15,21,26,28,,,2.0,1.2,1.6*3D
$GPRMC,104431.00,A,4226.680169,N,00522.785408,W,053.7,107.0,070513,,,A*49
$GPGGA,104432.00,4226.676451,N,00522.765759,W,1,09,0.5,818.3,M,52.0,M,,*78
$GPGSA,A,3,02,05,07,08,09,10,15,21,26,28,,,1.9,1.1,1.5*37
$GPRMC,104432.00,A,4226.676451,N,00522.765759,W,053.5,105.5,070513,,,A*41
$GPGGA,104433.00,4226.672802,N,00522.746157,W,1,08,0.5,819.2,M,52.0,M,,*7F
$GPGSA,A,3,02,05,07,08,09,10,15,21,26,28,,,1.9,1.1,1.5*37
$GPRMC,104433.00,A,4226.672802,N,00522.746157,W,053.4,104.6,070513,,,A*44
$GPGGA,104434.00,4226.669709,N,00522.726418,W,1,09,0.5,820.1,M,52.0,M,,*76
$GPGSA,A,3,02,05,07,08,09,10,15,21,26,28,,,1.9,1.1,1.5*37
$GPRMC,104434.00,A,4226.669709,N,00522.726418,W,053.3,102.7,070513,,,A*45
$GPGGA,104435.00,4226.666699,N,00522.706650,W,1,09,0.5,821.0,M,52.0,M,,*7C
$GPGSA,A,3,02,05,07,08,09,10,15,21,26,28,,,1.9,1.1,1.5*37
$GPRMC,104435.00,A,4226.666699,N,00522.706650,W,053.2,101.8,070513,,,A*42
$GPGGA,104436.00,4226.664139,N,00522.686693,W,1,09,0.5,822.0,M,52.0,M,,*75
$GPGSA,A,3,02,05,07,08,09,10,15,21,26,28,,,1.9,1.1,1.5*37
$GPRMC,104436.00,A,4226.664139,N,00522.686693,W,053.2,100.6,070513,,,A*47
$GPGGA,104437.00,4226.661822,N,00522.666594,W,1,09,0.5,822.9,M,52.0,M,,*71
$GPGSA,A,3,02,05,07,08,09,10,15,21,26,28,,,1.9,1.1,1.5*37
$GPRMC,104437.00,A,4226.661822,N,00522.666594,W,053.3,099.3,070513,,,A*4F
$GPGGA,104438.00,4226.659542,N,00522.646358,W,1,09,0.5,823.9,M,52.0,M,,*7B
$GPGSA,A,3,02,05,07,08,09,10,15,21,26,28,,,1.9,1.1,1.5*37
$GPRMC,104438.00,A,4226.659542,N,00522.646358,W,053.5,099.1,070513,,,A*40
$GPGGA,104439.00,4226.657496,N,00522.625977,W,1,09,0.5,824.8,M,52.0,M,,*78
$GPGSA,A,3,02,05,07,08,09,10,15,21,26,28,,,1.9,1.1,1.5*37
$GPRMC,104439.00,A,4226.657496,N,00522.625977,W,053.8,098.1,070513,,,A*49
$GPGGA,104440.00,4226.655576,N,00522.605546,W,1,08,0.5,825.7,M,52.0,M,,*78
$GPGSA,A,3,02,05,07,08,09,10,15,21,26,28,,,1.9,1.1,1.5*37
$GPRMC,104440.00,A,4226.655576,N,00522.605546,W,054.0,097.1,070513,,,A*46
$GPGGA,104441.00,4226.654096,N,00522.585080,W,1,08,0.5,826.5,M,52.0,M,,*76
$GPGSA,A,3,02,05,07,08,09,10,15,21,26,28,,,1.9,1.1,1.5*37
$GPRMC,104441.00,A,4226.654096,N,00522.585080,W,054.1,096.2,070513,,,A*4A
$GPGGA,104442.00,4226.652725,N,00522.564664,W,1,08,0.5,827.4,M,52.0,M,,*7F
$GPGSA,A,3,02,05,07,08,09,10,15,21,26,28,,,1.9,1.1,1.5*37
$GPRMC,104442.00,A,4226.652725,N,00522.564664,W,054.0,095.4,070513,,,A*47
$GPGGA,104443.00,4226.651754,N,00522.544249,W,1,08,0.5,828.2,M,52.0,M,,*7B
$GPGSA,A,3,02,05,07,08,09,10,15,21,26,28,,,1.9,1.1,1.5*37
$GPRMC,104443.00,A,4226.651754,N,00522.544249,W,054.0,094.4,070513,,,A*4B
$GPGGA,104444.00,4226.651044,N,00522.523836,W,1,09,0.5,828.9,M,52.0,M,,*73
$GPGSA,A,3,02,05,07,08,09,10,15,21,26,28,,,1.9,1.1,1.5*37
$GPRMC,104444.00,A,4226.651044,N,00522.523836,W,054.1,093.2,070513,,,A*49
$GPGGA,104445.00,4226.650672,N,00522.503413,W,1,10,0.5,829.5,M,52.0,M,,*7C
$GPGSA,A,3,02,05,07,08,09,10,15,21,26,28,,,1.9,1.1,1.5*37
$GPRMC,104445.00,A,4226.650672,N,00522.503413,W,054.1,091.8,070513,,,A*4B
$GPGGA,104446.00,4226.650434,N,00522.482977,W,1,09,0.5,830.2,M,52.0,M,,*7F
$GPGSA,A,3,02,05,07,08,09,10,15,21,26,28,,,1.9,1.1,1.5*37
$GPRMC,104446.00,A,4226.650434,N,00522.482977,W,054.1,091.1,070513,,,A*46
$GPGGA,104447.00,4226.650654,N,00522.462484,W,1,09,0.5,830.8,M,52.0,M,,*7F
$GPGSA,A,3,02,05,07,08,09,10,15,21,26,28,,,1.9,1.1,1.5*37
$GPRMC,104447.00,A,4226.650654,N,00522.462484,W,054.1,089.8,070513,,,A*4C
$GPGGA,104448.00,4226.650933,N,00522.441944,W,1,09,0.5,831.4,M,52.0,M,,*73
$GPGSA,A,3,02,05,07,08,09,10,15,21,26,28,,,1.9,1.1,1.5*37
$GPRMC,104448.00,A,4226.650933,N,00522.441944,W,054.2,089.5,070513,,,A*43
$GPGGA,104449.00,4226.651312,N,00522.421349,W,1,09,0.5,831.9,M,52.0,M,,*76
$GPGSA,A,3,02,05,07,08,09,10,15,21,26,28,,,1.9,1.1,1.5*37
$GPRMC,104449.00,A,4226.651312,N,00522.421349,W,054.3,089.1,070513,,,A*4E
$GPGGA,104450.00,4226.651930,N,00522.400645,W,1,09,0.5,832.4,M,52.0,M,,*70
$GPGSA,A,3,02,05,07,08,09,10,15,21,26,28,,,1.9,1.1,1.5*37
$GPRMC,104450.00,A,4226.651930,N,00522.400645,W,054.4,088.8,070513,,,A*49
$GPGGA,104451.00,4226.652581,N,00522.379882,W,1,09,0.5,833.0,M,52.0,M,,*7D
$GPGSA,A,3,02,05,07,08,09,10,15,21,26,28,,,1.9,1.1,1.5*37
$GPRMC,104451.00,A,4226.652581,N,00522.379882,W,054.5,088.1,070513,,,A*49
$GPGGA,104452.00,4226.653501,N,00522.359065,W,1,09,0.5,833.5,M,52.0,M,,*71
$GPGSA,A,3,02,05,07,08,09,10,15,21,26,28,,,1.9,1.1,1.5*37
$GPRMC,104452.00,A,4226.653501,N,00522.359065,W,054.6,087.5,070513,,,A*48
$GPGGA,104453.00,4226.654428,N,00522.338205,W,1,09,0.5,834.0,M,52.0,M,,*7C
$GPGSA,A,3,02,05,07,08,09,10,15,21,26,28,,,1.9,1.1,1.5*37
$GPRMC,104453.00,A,4226.654428,N,00522.338205,W,054.7,087.0,070513,,,A*43
$GPGGA,104454.00,4226.655407,N,00522.317332,W,1,09,0.5,834.6,M,52.0,M,,*79
$GPGSA,A,3,02,05,07,08,09,10,15,21,26,28,,,2.4,1.6,1.8*33
$GPRMC,104454.00,A,4226.655407,N,00522.317332,W,054.8,086.5,070513,,,A*4B
$GPGGA,104455.00,4226.656504,N,00522.296552,W,1,09,0.5,835.0,M,52.0,M,,*76
$GPGSA,A,3,02,05,07,08,09,10,15,21,26,28,,,1.9,1.1,1.5*37
$GPRMC,104455.00,A,4226.656504,N,00522.296552,W,054.8,086.1,070513,,,A*47
$GPGGA,104456.00,4226.657516,N,00522.275802,W,1,09,0.5,835.5,M,52.0,M,,*77
$GPGSA,A,3,02,05,07,08,09,10,15,21,26,28,,,1.9,1.1,1.5*37
$GPRMC,104456.00,A,4226.657516,N,00522.275802,W,054.8,085.9,070513,,,A*48
$GPGGA,104457.00,4226.658511,N,00522.254999,W,1,09,0.5,835.9,M,52.0,M,,*72
$GPGSA,A,3,02,05,07,08,09,10,15,21,26,28,,,2.4,1.6,1.8*33
$GPRMC,104457.00,A,4226.658511,N,00522.254999,W,055.0,085.6,070513,,,A*47
$GPGGA,104458.00,4226.659464,N,00522.234107,W,1,09,0.5,836.2,M,52.0,M,,*7E
$GPGSA,A,3,02,05,07,08,09,10,15,21,26,28,,,2.4,1.6,1.8*33
$GPRMC,104458.00,A,4226.659464,N,00522.234107,W,055.2,086.1,070513,,,A*45
$GPGGA,104459.00,4226.660420,N,00522.213101,W,1,09,0.5,836.5,M,52.0,M,,*71
$GPGSA,A,3,02,05,07,08,09,10,15,21,26,28,,,2.4,1.6,1.8*33
$GPRMC,104459.00,A,4226.660420,N,00522.213101,W,055.3,085.9,070513,,,A*47
$GPGGA,104500.00,4226.661663,N,00522.192000,W,1,09,0.5,836.7,M,52.0,M,,*70
$GPGSA,A,3,02,05,07,08,09,10,15,21,26,28,,,1.9,1.1,1.5*37
$GPRMC,104500.00,A,4226.661663,N,00522.192000,W,055.6,086.1,070513,,,A*4A
