$GPGGA,101600.000,4108.5534,N,00334.9124,W,1,08,1.0,1408.9,M,51.7,M,,0000*76
$GPGSA,A,3,24,26,28,17,15,05,18,12,,,,,1.8,1.0,1.6*38
$GPRMC,101600.000,A,4108.5534,N,00334.9124,W,41.87,164.19,310514,,,A*49
$GPGGA,101601.000,4108.5422,N,00334.9084,W,1,08,1.0,1409.1,M,51.7,M,,0000*73
$GPGSA,A,3,24,26,28,17,15,05,18,12,,,,,1.8,1.0,1.6*38
$GPRMC,101601.000,A,4108.5422,N,00334.9084,W,42.01,166.11,310514,,,A*42
$GPGGA,101602.000,4108.5309,N,00334.9049,W,1,07,1.1,1409.7,M,51.7,M,,0000*77
$GPGSA,A,3,24,26,28,17,15,18,12,,,,,,1.9,1.1,1.6*3D
$GPRMC,101602.000,A,4108.5309,N,00334.9049,W,42.29,167.39,310514,,,A*4F
$GPGGA,101603.000,4108.5195,N,00334.9016,W,1,08,1.0,1410.0,M,51.7,M,,0000*7A
$GPGSA,A,3,24,26,28,17,15,05,18,12,,,,,1.8,1.0,1.6*38
$GPRMC,101603.000,A,4108.5195,N,00334.9016,W,42.39,167.85,310514,,,A*45
$GPGGA,101604.000,4108.5080,N,00334.8988,W,1,08,1.0,1411.0,M,51.7,M,,0000*76
$GPGSA,A,3,24,26,28,17,15,05,18,12,,,,,1.8,1.0,1.6*38
$GPGSV,3,1,09,15,81,321,25,26,54,107,24,24,48,277,22,18,29,302,28*7C
$GPGSV,3,2,09,28,27,044,19,17,20,096,20,12,15,205,15,05,14,178,28*7F
$GPGSV,3,3,09,22,02,326,*45
$GPRMC,101604.000,A,4108.5080,N,00334.8988,W,42.10,168.40,310514,,,A*45
$GPGGA,101605.000,4108.4964,N,00334.8965,W,1,08,1.0,1412.2,M,51.7,M,,0000*77
$GPGSA,A,3,24,26,28,17,15,05,18,12,,,,,1.8,1.0,1.6*38
$GPRMC,101605.000,A,4108.4964,N,00334.8965,W,42.32,171.40,310514,,,A*4D
$GPGGA,101606.000,4108.4843,N,00334.8952,W,1,08,1.0,1413.7,M,51.7,M,,0000*70
$GPGSA,A,3,24,26,28,17,15,05,18,12,,,,,1.8,1.0,1.6*38
$GPRMC,101606.000,A,4108.4843,N,00334.8952,W,43.08,174.90,310514,,,A*4E
$GPGGA,101607.000,4108.4720,N,00334.8950,W,1,08,1.0,1415.8,M,51.7,M,,0000*70
$GPGSA,A,3,24,26,28,17,15,05,18,12,,,,,1.8,1.0,1.6*38
$GPRMC,101607.000,A,4108.4720,N,00334.8950,W,43.57,177.61,310514,,,A*40
$GPGGA,101608.000,4108.4602,N,00334.8946,W,1,08,1.0,1417.0,M,51.7,M,,0000*73
$GPGSA,A,3,24,26,28,17,15,05,18,12,,,,,1.8,1.0,1.6*38
$GPRMC,101608.000,A,4108.4602,N,00334.8946,W,43.59,179.29,310514,,,A*45
$GPGGA,101609.000,4108.4479,N,00334.8953,W,1,08,1.0,1418.8,M,51.7,M,,0000*7F
$GPGSA,A,3,24,26,28,17,15,05,18,12,,,,,1.8,1.0,1.6*38
$GPGSV,3,1,09,15,81,321,14,26,54,107,21,24,48,277,28,18,29,302,28*71
$GPGSV,3,2,09,28,27,044,24,17,20,096,19,12,15,205,27,05,14,178,27*75
$GPGSV,3,3,09,22,02,326,*45
$GPRMC,101609.000,A,4108.4479,N,00334.8953,W,44.01,181.55,310514,,,A*48
$GPGGA,101610.000,4108.4353,N,00334.8965,W,1,08,1.0,1420.8,M,51.7,M,,0000*76
$GPGSA,A,3,24,26,28,17,15,05,18,12,,,,,1.8,1.0,1.6*38
$GPRMC,101610.000,A,4108.4353,N,00334.8965,W,44.38,183.18,310514,,,A*4B
$GPGGA,101611.000,4108.4228,N,00334.8980,W,1,08,1.0,1422.6,M,51.7,M,,0000*7D
$GPGSA,A,3,24,26,28,17,15,05,18,12,,,,,1.8,1.0,1.6*38
$GPRMC,101611.000,A,4108.4228,N,00334.8980,W,44.64,184.50,310514,,,A*4E
$GPGGA,101612.000,4108.4102,N,00334.9000,W,1,08,1.0,1424.3,M,51.7,M,,0000*76
$GPGSA,A,3,24,26,28,17,15,05,18,12,,,,,1.8,1.0,1.6*38
$GPRMC,101612.000,A,4108.4102,N,00334.9000,W,45.21,186.31,310514,,,A*43
$GPGGA,101613.000,4108.3978,N,00334.9022,W,1,08,1.0,1425.3,M,51.7,M,,0000*74
$GPGSA,A,3,24,26,28,17,15,05,18,12,,,,,1.8,1.0,1.6*38
$GPRMC,101613.000,A,4108.3978,N,00334.9022,W,45.27,187.40,310514,,,A*41
$GPGGA,101614.000,4108.3853,N,00334.9046,W,1,08,1.0,1426.7,M,51.7,M,,0000*7E
$GPGSA,A,3,24,26,28,17,15,05,18,12,,,,,1.8,1.0,1.6*38
$GPGSV,3,1,09,15,81,321,20,26,54,107,27,24,48,277,33,18,29,302,29*7B
$GPGSV,3,2,09,28,27,044,27,17,20,096,25,12,15,205,28,05,14,178,22*73
$GPGSV,3,3,09,22,02,326,*45
$GPRMC,101614.000,A,4108.3853,N,00334.9046,W,45.33,188.02,310514,,,A*40
$GPGGA,101615.000,4108.3730,N,00334.9071,W,1,08,1.0,1427.7,M,51.7,M,,0000*70
$GPGSA,A,3,24,26,28,17,15,05,18,12,,,,,1.8,1.0,1.6*38
$GPRMC,101615.000,A,4108.3730,N,00334.9071,W,45.64,188.28,310514,,,A*45
$GPGGA,101616.000,4108.3605,N,00334.9096,W,1,08,1.0,1428.6,M,51.7,M,,0000*73
$GPGSA,A,3,24,26,28,17,15,05,18,12,,,,,1.8,1.0,1.6*38
$GPRMC,101616.000,A,4108.3605,N,00334.9096,W,45.66,188.13,310514,,,A*42
$GPGGA,101617.000,4108.3481,N,00334.9120,W,1,08,1.0,1429.8,M,51.7,M,,0000*7F
$GPGSA,A,3,24,26,28,17,15,05,18,12,,,,,1.8,1.0,1.6*38
$GPRMC,101617.000,A,4108.3481,N,00334.9120,W,44.58,187.94,310514,,,A*4D
$GPGGA,101618.000,4108.3360,N,00334.9143,W,1,08,1.0,1430.9,M,51.7,M,,0000*74
$GPGSA,A,3,24,26,28,17,15,05,18,12,,,,,1.8,1.0,1.6*38
$GPRMC,101618.000,A,4108.3360,N,00334.9143,W,43.78,187.81,310514,,,A*4E
$GPGGA,101619.000,4108.3242,N,00334.9166,W,1,08,1.0,1432.0,M,51.7,M,,0000*78
$GPGSA,A,3,24,26,28,17,15,05,18,12,,,,,1.8,1.0,1.6*38
$GPGSV,3,1,09,15,82,321,23,26,53,109,27,24,49,278,33,18,30,301,30*7F
$GPGSV,3,2,09,28,26,043,27,17,20,095,26,12,16,205,28,05,13,178,23*70
$GPGSV,3,3,09,22,03,325,*47
$GPRMC,101619.000,A,4108.3242,N,00334.9166,W,42.35,187.85,310514,,,A*45
$GPGGA,101620.000,4108.3126,N,00334.9189,W,1,08,1.0,1433.3,M,51.7,M,,0000*70
$GPGSA,A,3,24,26,28,17,15,05,18,12,,,,,1.8,1.0,1.6*38
$GPRMC,101620.000,A,4108.3126,N,00334.9189,W,41.29,187.85,310514,,,A*41
$GPGGA,101621.000,4108.3013,N,00334.9212,W,1,08,1.0,1434.4,M,51.7,M,,0000*77
$GPGSA,A,3,24,26,28,17,15,05,18,12,,,,,1.8,1.0,1.6*38
$GPRMC,101621.000,A,4108.3013,N,00334.9212,W,40.81,187.83,310514,,,A*43
$GPGGA,101622.000,4108.2901,N,00334.9234,W,1,08,1.0,1435.4,M,51.7,M,,0000*7A
$GPGSA,A,3,24,26,28,17,15,05,18,12,,,,,1.8,1.0,1.6*38
$GPRMC,101622.000,A,4108.2901,N,00334.9234,W,40.59,188.02,310514,,,A*4C
$GPGGA,101623.000,4108.2789,N,00334.9256,W,1,08,1.0,1436.4,M,51.7,M,,0000*72
$GPGSA,A,3,24,26,28,17,15,05,18,12,,,,,1.8,1.0,1.6*38
$GPRMC,101623.000,A,4108.2789,N,00334.9256,W,40.65,188.13,310514,,,A*48
$GPGGA,101624.000,4108.2676,N,00334.9279,W,1,08,1.0,1437.3,M,51.7,M,,0000*7F
$GPGSA,A,3,24,26,28,17,15,05,18,12,,,,,1.8,1.0,1.6*38
$GPGSV,3,1,09,15,82,321,25,26,53,109,27,24,49,278,32,18,30,301,30*78
$GPGSV,3,2,09,28,26,043,28,17,20,095,26,12,16,205,29,05,13,178,24*79
$GPGSV,3,3,09,22,03,325,*47
$GPRMC,101624.000,A,4108.2676,N,00334.9279,W,40.86,188.22,310514,,,A*4C
$GPGGA,101625.000,4108.2564,N,00334.9301,W,1,08,1.0,1438.2,M,51.7,M,,0000*7E
$GPGSA,A,3,24,26,28,17,15,05,18,12,,,,,1.8,1.0,1.6*38
$GPRMC,101625.000,A,4108.2564,N,00334.9301,W,40.84,188.34,310514,,,A*46
$GPGGA,101626.000,4108.2450,N,00334.9324,W,1,08,1.0,1439.0,M,51.7,M,,0000*7F
$GPGSA,A,3,24,26,28,17,15,05,18,12,,,,,1.8,1.0,1.6*38
$GPRMC,101626.000,A,4108.2450,N,00334.9324,W,41.19,188.00,310514,,,A*46
$GPGGA,101627.000,4108.2337,N,00334.9346,W,1,08,1.0,1439.6,M,51.7,M,,0000*7A
$GPGSA,A,3,24,26,28,17,15,05,18,12,,,,,1.8,1.0,1.6*38
$GPRMC,101627.000,A,4108.2337,N,00334.9346,W,41.11,187.84,310514,,,A*4E
$GPGGA,101628.000,4108.2224,N,00334.9367,W,1,08,1.0,1440.1,M,51.7,M,,0000*7C
$GPGSA,A,3,24,26,28,17,15,05,18,12,,,,,1.8,1.0,1.6*38
$GPRMC,101628.000,A,4108.2224,N,00334.9367,W,41.30,187.53,310514,,,A*48
$GPGGA,101629.000,4108.2111,N,00334.9388,W,1,08,1.0,1440.2,M,51.7,M,,0000*7A
$GPGSA,A,3,24,26,28,17,15,05,18,12,,,,,1.8,1.0,1.6*38
$GPGSV,3,1,09,15,82,321,27,26,53,109,27,24,49,278,32,18,30,301,30*7A
$GPGSV,3,2,09,28,26,043,29,17,20,095,26,12,16,205,26,05,13,178,24*77
$GPGSV,3,3,09,22,03,325,*47
$GPRMC,101629.000,A,4108.2111,N,00334.9388,W,41.35,187.59,310514,,,A*42
$GPGGA,101630.000,4108.1997,N,00334.9409,W,1,05,2.0,1440.5,M,51.7,M,,0000*70
$GPGSA,A,3,26,28,17,15,18,,,,,,,,3.0,2.0,2.3*37
$GPRMC,101630.000,A,4108.1997,N,00334.9409,W,41.50,187.43,310514,,,A*49
$GPGGA,101631.000,4108.1881,N,00334.9434,W,1,03,2.1,1441.4,M,51.7,M,,0000*7E
$GPGSA,A,2,24,28,17,,,,,,,,,,2.3,2.1,1.0*3A
$GPRMC,101631.000,A,4108.1881,N,00334.9434,W,41.95,189.65,310514,,,A*43
$GPGGA,101632.000,4108.1766,N,00334.9460,W,6,00,50.0,1442.0,M,51.7,M,,0000*4F
$GPGSA,A,2,,,,,,,,,,,,,50.0,50.0,50.0*06
$GPRMC,101632.000,V,4108.1766,N,00334.9460,W,41.95,189.65,310514,,,E*54
$GPGGA,101633.000,4108.1651,N,00334.9486,W,6,00,50.0,1442.7,M,51.7,M,,0000*44
$GPGSA,A,2,,,,,,,,,,,,,50.0,50.0,50.0*06
$GPRMC,101633.000,V,4108.1651,N,00334.9486,W,41.95,189.65,310514,,,E*58
$GPGGA,101634.000,4108.1537,N,00334.9512,W,6,00,50.0,1443.4,M,51.7,M,,0000*4E
$GPGSA,A,2,,,,,,,,,,,,,50.0,50.0,50.0*06
$GPGSV,3,1,09,15,82,321,,26,53,109,,24,49,278,,18,30,301,*78
$GPGSV,3,2,09,28,26,043,,17,20,095,,12,16,205,,05,13,178,*7A
$GPGSV,3,3,09,22,03,325,*47
$GPRMC,101634.000,V,4108.1537,N,00334.9512,W,41.95,189.65,310514,,,E*50
$GPGGA,101635.000,4108.1422,N,00334.9538,W,6,00,50.0,1444.1,M,51.7,M,,0000*40
$GPGSA,A,2,,,,,,,,,,,,,50.0,50.0,50.0*06
$GPRMC,101635.000,V,4108.1422,N,00334.9538,W,41.95,189.65,310514,,,E*5C
$GPGGA,101636.000,,,,,0,00,50.0,,M,0.0,M,,0000*4E
$GPGSA,A,1,,,,,,,,,,,,,50.0,50.0,50.0*05
$GPRMC,101636.000,V,,,,,,,310514,,,N*4C
$GPGGA,101637.000,,,,,0,00,50.0,,M,0.0,M,,0000*4F
$GPGSA,A,1,,,,,,,,,,,,,50.0,50.0,50.0*05
$GPRMC,101637.000,V,,,,,,,310514,,,N*4D
$GPGGA,101638.000,,,,,0,00,50.0,,M,0.0,M,,0000*40
$GPGSA,A,1,,,,,,,,,,,,,50.0,50.0,50.0*05
$GPRMC,101638.000,V,,,,,,,310514,,,N*42
$GPGGA,101639.000,,,,,0,00,50.0,,M,0.0,M,,0000*41
$GPGSA,A,1,,,,,,,,,,,,,50.0,50.0,50.0*05
$GPGSV,3,1,09,15,82,321,,26,53,109,,24,49,278,,18,30,301,*78
$GPGSV,3,2,09,28,26,043,,17,20,095,,12,16,205,,05,13,178,*7A
$GPGSV,3,3,09,22,03,325,*47
$GPRMC,101639.000,V,,,,,,,310514,,,N*43
$GPGGA,101640.000,,,,,0,00,50.0,,M,0.0,M,,0000*4F
$GPGSA,A,1,,,,,,,,,,,,,50.0,50.0,50.0*05
$GPRMC,101640.000,V,,,,,,,310514,,,N*4D
$GPGGA,101641.000,,,,,0,00,50.0,,M,0.0,M,,0000*4E
$GPGSA,A,1,,,,,,,,,,,,,50.0,50.0,50.0*05
$GPRMC,101641.000,V,,,,,,,310514,,,N*4C
$GPGGA,101642.000,,,,,0,00,50.0,,M,0.0,M,,0000*4D
$GPGSA,A,1,,,,,,,,,,,,,50.0,50.0,50.0*05
$GPRMC,101642.000,V,,,,,,,310514,,,N*4F
$GPGGA,101643.000,,,,,0,00,50.0,,M,0.0,M,,0000*4C
$GPGSA,A,1,,,,,,,,,,,,,50.0,50.0,50.0*05
$GPRMC,101643.000,V,,,,,,,310514,,,N*4E
$GPGGA,101644.000,,,,,0,00,50.0,,M,0.0,M,,0000*4B
$GPGSA,A,1,,,,,,,,,,,,,50.0,50.0,50.0*05
$GPGSV,3,1,09,15,82,321,,26,53,109,,24,49,278,,18,30,301,*78
$GPGSV,3,2,09,28,26,043,,17,20,095,,12,16,205,,05,13,178,*7A
$GPGSV,3,3,09,22,03,325,*47
$GPRMC,101644.000,V,,,,,,,310514,,,N*49
$GPGGA,101645.000,,,,,0,00,50.0,,M,0.0,M,,0000*4A
$GPGSA,A,1,,,,,,,,,,,,,50.0,50.0,50.0*05
$GPRMC,101645.000,V,,,,,,,310514,,,N*48
$GPGGA,101646.000,,,,,0,00,50.0,,M,0.0,M,,0000*49
$GPGSA,A,1,,,,,,,,,,,,,50.0,50.0,50.0*05
$GPRMC,101646.000,V,,,,,,,310514,,,N*4B
$GPGGA,101647.000,,,,,0,00,50.0,,M,0.0,M,,0000*48
$GPGSA,A,1,,,,,,,,,,,,,50.0,50.0,50.0*05
$GPRMC,101647.000,V,,,,,,,310514,,,N*4A
$GPGGA,101648.000,,,,,0,00,50.0,,M,0.0,M,,0000*47
$GPGSA,A,1,,,,,,,,,,,,,50.0,50.0,50.0*05
$GPRMC,101648.000,V,,,,,,,310514,,,N*45
$GPGGA,101649.000,,,,,0,00,50.0,,M,0.0,M,,0000*46
$GPGSA,A,1,,,,,,,,,,,,,50.0,50.0,50.0*05
$GPGSV,3,1,09,15,82,321,,26,53,109,,24,49,278,,18,30,301,*78
$GPGSV,3,2,09,28,26,043,,17,20,095,,12,16,205,,05,13,178,*7A
$GPGSV,3,3,09,22,03,325,*47
$GPRMC,101649.000,V,,,,,,,310514,,,N*44
$GPGGA,101650.000,,,,,0,00,50.0,,M,0.0,M,,0000*4E
$GPGSA,A,1,,,,,,,,,,,,,50.0,50.0,50.0*05
$GPRMC,101650.000,V,,,,,,,310514,,,N*4C
$GPGGA,101651.000,,,,,0,00,50.0,,M,0.0,M,,0000*4F
$GPGSA,A,1,,,,,,,,,,,,,50.0,50.0,50.0*05
$GPRMC,101651.000,V,,,,,,,310514,,,N*4D
$GPGGA,101652.000,,,,,0,00,50.0,,M,0.0,M,,0000*4C
$GPGSA,A,1,,,,,,,,,,,,,50.0,50.0,50.0*05
$GPRMC,101652.000,V,,,,,,,310514,,,N*4E
$GPGGA,101653.000,,,,,0,00,50.0,,M,0.0,M,,0000*4D
$GPGSA,A,1,,,,,,,,,,,,,50.0,50.0,50.0*05
$GPRMC,101653.000,V,,,,,,,310514,,,N*4F
$GPGGA,101654.000,,,,,0,00,50.0,,M,0.0,M,,0000*4A
$GPGSA,A,1,,,,,,,,,,,,,50.0,50.0,50.0*05
$GPGSV,3,1,09,15,82,321,,26,53,109,,24,49,278,,18,30,301,*78
$GPGSV,3,2,09,28,26,043,,17,20,095,,12,16,205,,05,13,178,*7A
$GPGSV,3,3,09,22,03,325,*47
$GPRMC,101654.000,V,,,,,,,310514,,,N*48
$GPGGA,101655.000,,,,,0,00,50.0,,M,0.0,M,,0000*4B
$GPGSA,A,1,,,,,,,,,,,,,50.0,50.0,50.0*05
$GPRMC,101655.000,V,,,,,,,310514,,,N*49
$GPGGA,101656.000,,,,,0,00,50.0,,M,0.0,M,,0000*48
$GPGSA,A,1,,,,,,,,,,,,,50.0,50.0,50.0*05
$GPRMC,101656.000,V,,,,,,,310514,,,N*4A
$GPGGA,101657.000,,,,,0,00,50.0,,M,0.0,M,,0000*49
$GPGSA,A,1,,,,,,,,,,,,,50.0,50.0,50.0*05
$GPRMC,101657.000,V,,,,,,,310514,,,N*4B
$GPGGA,101658.000,,,,,0,00,50.0,,M,0.0,M,,0000*46
$GPGSA,A,1,,,,,,,,,,,,,50.0,50.0,50.0*05
$GPRMC,101658.000,V,,,,,,,310514,,,N*44
$GPGGA,101659.000,,,,,0,00,50.0,,M,0.0,M,,0000*47
$GPGSA,A,1,,,,,,,,,,,,,50.0,50.0,50.0*05
$GPGSV,3,1,09,15,82,321,,26,53,109,,24,49,278,,18,30,301,*78
$GPGSV,3,2,09,28,26,043,,17,20,095,,12,16,205,,05,13,178,*7A
$GPGSV,3,3,09,22,03,325,*47
$GPRMC,101659.000,V,,,,,,,310514,,,N*45
$GPGGA,101700.000,,,,,0,00,50.0,,M,0.0,M,,0000*4A
$GPGSA,A,1,,,,,,,,,,,,,50.0,50.0,50.0*05
$GPRMC,101700.000,V,,,,,,,310514,,,N*48
$GPGGA,101701.000,4107.8316,N,00335.0447,W,1,04,2.8,1455.4,M,51.7,M,,0000*78
$GPGSA,A,3,17,12,15,24,,,,,,,,,4.6,2.8,3.7*39
$GPRMC,101701.000,A,4107.8316,N,00335.0447,W,47.87,183.86,310514,,,A*4C
$GPGGA,101702.000,4107.8241,N,00335.0492,W,1,06,1.6,1435.5,M,51.7,M,,0000*78
$GPGSA,A,3,17,05,12,15,24,28,,,,,,,2.9,1.6,2.4*30
$GPRMC,101702.000,A,4107.8241,N,00335.0492,W,46.33,180.20,310514,,,A*45
$GPGGA,101703.000,4107.8118,N,00335.0501,W,1,07,1.0,1433.2,M,51.7,M,,0000*7B
$GPGSA,A,3,17,05,12,15,18,28,26,,,,,,1.9,1.0,1.6*3F
$GPRMC,101703.000,A,4107.8118,N,00335.0501,W,46.39,178.11,310514,,,A*4F
$GPGGA,101704.000,4107.7982,N,00335.0472,W,1,08,1.0,1432.5,M,51.7,M,,0000*74
$GPGSA,A,3,17,05,12,15,24,18,28,26,,,,,1.8,1.0,1.6*38
$GPGSV,3,1,09,15,82,321,27,26,53,109,25,24,49,278,20,18,30,301,25*7F
$GPGSV,3,2,09,28,26,043,17,17,20,095,23,12,16,205,30,05,13,178,22*7E
$GPGSV,3,3,09,22,03,325,*47
$GPRMC,101704.000,A,4107.7982,N,00335.0472,W,47.31,174.66,310514,,,A*4C
$GPGGA,101705.000,4107.7851,N,00335.0447,W,1,08,1.0,1431.1,M,51.7,M,,0000*7B
$GPGSA,A,3,17,05,12,15,24,18,28,26,,,,,1.8,1.0,1.6*38
$GPRMC,101705.000,A,4107.7851,N,00335.0447,W,47.70,172.11,310514,,,A*47
$GPGGA,101706.000,4107.7718,N,00335.0412,W,1,08,1.0,1431.0,M,51.7,M,,0000*7B
$GPGSA,A,3,17,05,12,15,24,18,28,26,,,,,1.8,1.0,1.6*38
$GPRMC,101706.000,A,4107.7718,N,00335.0412,W,47.92,169.93,310514,,,A*4A
$GPGGA,101707.000,4107.7589,N,00335.0376,W,1,08,1.0,1430.8,M,51.7,M,,0000*7C
$GPGSA,A,3,17,05,12,15,24,18,28,26,,,,,1.8,1.0,1.6*38
$GPRMC,101707.000,A,4107.7589,N,00335.0376,W,48.23,168.20,310514,,,A*48
$GPGGA,101708.000,4107.7462,N,00335.0336,W,1,08,1.0,1429.5,M,51.7,M,,0000*76
$GPGSA,A,3,17,05,12,15,24,18,28,26,,,,,1.8,1.0,1.6*38
$GPRMC,101708.000,A,4107.7462,N,00335.0336,W,48.60,166.15,310514,,,A*48
$GPGGA,101709.000,4107.7336,N,00335.0289,W,1,08,1.0,1426.2,M,51.7,M,,0000*7C
$GPGSA,A,3,17,05,12,15,24,18,28,26,,,,,1.8,1.0,1.6*38
$GPGSV,3,1,09,15,82,321,28,26,53,109,27,24,49,278,19,18,30,301,29*74
$GPGSV,3,2,09,28,26,043,22,17,20,095,17,12,16,205,31,05,13,178,30*7D
$GPGSV,3,3,09,22,03,325,*47
$GPRMC,101709.000,A,4107.7336,N,00335.0289,W,48.71,164.43,310514,,,A*4B
$GPGGA,101710.000,4107.7206,N,00335.0240,W,1,08,1.0,1424.9,M,51.7,M,,0000*7A
$GPGSA,A,3,17,05,12,15,24,18,28,26,,,,,1.8,1.0,1.6*38
$GPRMC,101710.000,A,4107.7206,N,00335.0240,W,49.00,164.08,310514,,,A*4C
$GPGGA,101711.000,4107.7075,N,00335.0193,W,1,08,1.0,1423.2,M,51.7,M,,0000*7C
$GPGSA,A,3,17,05,12,15,24,18,28,26,,,,,1.8,1.0,1.6*38
$GPRMC,101711.000,A,4107.7075,N,00335.0193,W,49.33,164.18,310514,,,A*47
$GPGGA,101712.000,4107.6944,N,00335.0143,W,1,08,1.0,1420.9,M,51.7,M,,0000*70
$GPGSA,A,3,17,05,12,15,24,18,28,26,,,,,1.8,1.0,1.6*38
$GPRMC,101712.000,A,4107.6944,N,00335.0143,W,49.55,165.70,310514,,,A*4C
$GPGGA,101713.000,4107.6810,N,00335.0101,W,1,08,1.0,1419.0,M,51.7,M,,0000*74
$GPGSA,A,3,17,05,12,15,24,18,28,26,,,,,1.8,1.0,1.6*38
$GPRMC,101713.000,A,4107.6810,N,00335.0101,W,49.65,167.92,310514,,,A*46
$GPGGA,101714.000,4107.6675,N,00335.0070,W,1,08,1.0,1417.5,M,51.7,M,,0000*72
$GPGSA,A,3,17,05,12,15,24,18,28,26,,,,,1.8,1.0,1.6*38
$GPGSV,3,1,09,15,82,321,29,26,53,109,26,24,49,278,19,18,30,301,27*7A
$GPGSV,3,2,09,28,26,043,21,17,20,095,20,12,16,205,19,05,13,178,31*71
$GPGSV,3,3,09,22,03,325,*47
$GPRMC,101714.000,A,4107.6675,N,00335.0070,W,49.75,170.64,310514,,,A*45
$GPGGA,101715.000,4107.6534,N,00335.0044,W,1,08,1.0,1416.7,M,51.7,M,,0000*71
$GPGSA,A,3,17,05,12,15,24,18,28,26,,,,,1.8,1.0,1.6*38
$GPRMC,101715.000,A,4107.6534,N,00335.0044,W,50.34,172.63,310514,,,A*4D
$GPGGA,101716.000,4107.6392,N,00335.0028,W,1,08,1.0,1415.8,M,51.7,M,,0000*7E
$GPGSA,A,3,17,05,12,15,24,18,28,26,,,,,1.8,1.0,1.6*38
$GPRMC,101716.000,A,4107.6392,N,00335.0028,W,51.02,174.69,310514,,,A*46
$GPGGA,101717.000,4107.6246,N,00335.0026,W,1,08,1.0,1415.3,M,51.7,M,,0000*72
$GPGSA,A,3,17,05,12,15,24,18,28,26,,,,,1.8,1.0,1.6*38
$GPRMC,101717.000,A,4107.6246,N,00335.0026,W,51.38,177.85,310514,,,A*49
$GPGGA,101718.000,4107.6104,N,00335.0026,W,1,08,1.0,1414.4,M,51.7,M,,0000*7E
$GPGSA,A,3,17,05,12,15,24,18,28,26,,,,,1.8,1.0,1.6*38
$GPRMC,101718.000,A,4107.6104,N,00335.0026,W,52.24,179.58,310514,,,A*43
$GPGGA,101719.000,4107.5962,N,00335.0042,W,1,08,1.0,1412.5,M,51.7,M,,0000*71
$GPGSA,A,3,17,05,12,15,24,18,28,26,,,,,1.8,1.0,1.6*38
$GPGSV,3,1,09,15,82,321,29,26,53,109,26,24,49,278,28,18,30,301,25*7A
$GPGSV,3,2,09,28,26,043,22,17,20,095,21,12,16,205,29,05,13,178,16*75
$GPGSV,3,3,09,22,03,325,*47
$GPRMC,101719.000,A,4107.5962,N,00335.0042,W,51.89,183.13,310514,,,A*45
$GPGGA,101720.000,4107.5824,N,00335.0073,W,1,08,1.0,1409.7,M,51.7,M,,0000*72
$GPGSA,A,3,17,05,12,15,24,18,28,26,,,,,1.8,1.0,1.6*38
$GPRMC,101720.000,A,4107.5824,N,00335.0073,W,51.51,187.58,310514,,,A*40
$GPGGA,101721.000,4107.5684,N,00335.0109,W,1,08,1.0,1407.3,M,51.7,M,,0000*71
$GPGSA,A,3,17,05,12,15,24,18,28,26,,,,,1.8,1.0,1.6*38
$GPRMC,101721.000,A,4107.5684,N,00335.0109,W,52.13,190.33,310514,,,A*47
$GPGGA,101722.000,4107.5543,N,00335.0152,W,1,08,1.0,1405.0,M,51.7,M,,0000*75
$GPGSA,A,3,17,05,12,15,24,18,28,26,,,,,1.8,1.0,1.6*38
$GPRMC,101722.000,A,4107.5543,N,00335.0152,W,52.32,193.20,310514,,,A*40
$GPGGA,101723.000,4107.5404,N,00335.0204,W,1,08,1.0,1402.7,M,51.7,M,,0000*76
$GPGSA,A,3,17,05,12,15,24,18,28,26,,,,,1.8,1.0,1.6*38
$GPRMC,101723.000,A,4107.5404,N,00335.0204,W,52.33,195.89,310514,,,A*47
$GPGGA,101724.000,4107.5267,N,00335.0267,W,1,08,1.0,1400.8,M,51.7,M,,0000*7A
$GPGSA,A,3,17,05,12,15,24,18,28,26,,,,,1.8,1.0,1.6*38
$GPGSV,3,1,09,15,82,321,28,26,53,109,27,24,49,278,28,18,30,301,30*7E
$GPGSV,3,2,09,28,26,043,21,17,20,095,21,12,16,205,31,05,13,178,25*7F
$GPGSV,3,3,09,22,03,325,*47
$GPRMC,101724.000,A,4107.5267,N,00335.0267,W,52.42,199.09,310514,,,A*44
$GPGGA,101725.000,4107.5132,N,00335.0339,W,1,08,1.0,1399.1,M,51.7,M,,0000*7C
$GPGSA,A,3,17,05,12,15,24,18,28,26,,,,,1.8,1.0,1.6*38
$GPRMC,101725.000,A,4107.5132,N,00335.0339,W,52.61,201.92,310514,,,A*4D
$GPGGA,101726.000,4107.4999,N,00335.0420,W,1,08,1.0,1397.3,M,51.7,M,,0000*74
$GPGSA,A,3,17,05,12,15,24,18,28,26,,,,,1.8,1.0,1.6*38
$GPRMC,101726.000,A,4107.4999,N,00335.0420,W,52.97,204.72,310514,,,A*4B
$GPGGA,101727.000,4107.4868,N,00335.0510,W,1,08,1.0,1395.3,M,51.7,M,,0000*7A
$GPGSA,A,3,17,05,12,15,24,18,28,26,,,,,1.8,1.0,1.6*38
$GPRMC,101727.000,A,4107.4868,N,00335.0510,W,53.18,207.55,310514,,,A*47
$GPGGA,101728.000,4107.4740,N,00335.0610,W,1,07,1.2,1393.5,M,51.7,M,,0000*7E
$GPGSA,A,3,17,05,12,15,24,18,26,,,,,,2.1,1.2,1.8*34
$GPRMC,101728.000,A,4107.4740,N,00335.0610,W,53.74,210.52,310514,,,A*45
$GPGGA,101729.000,4107.4612,N,00335.0717,W,1,08,1.0,1392.4,M,51.7,M,,0000*72
$GPGSA,A,3,17,05,12,15,24,18,28,26,,,,,1.8,1.0,1.6*38
$GPGSV,3,1,09,15,82,321,27,26,53,109,30,24,49,278,29,18,30,301,28*7F
$GPGSV,3,2,09,28,26,043,12,17,20,095,29,12,16,205,26,05,13,178,27*73
$GPGSV,3,3,09,22,03,325,*47
$GPRMC,101729.000,A,4107.4612,N,00335.0717,W,54.24,212.59,310514,,,A*4F
$GPGGA,101730.000,4107.4485,N,00335.0830,W,1,08,1.0,1391.2,M,51.7,M,,0000*79
$GPGSA,A,3,17,05,12,15,24,18,28,26,,,,,1.8,1.0,1.6*38
$GPRMC,101730.000,A,4107.4485,N,00335.0830,W,54.82,214.09,310514,,,A*4E
$GPGGA,101731.000,4107.4359,N,00335.0944,W,1,08,1.0,1390.1,M,51.7,M,,0000*7E
$GPGSA,A,3,17,05,12,15,24,18,28,26,,,,,1.8,1.0,1.6*38
$GPRMC,101731.000,A,4107.4359,N,00335.0944,W,55.14,214.20,310514,,,A*4E
$GPGGA,101732.000,4107.4230,N,00335.1060,W,1,08,1.0,1389.4,M,51.7,M,,0000*70
$GPGSA,A,3,17,05,12,15,24,18,28,26,,,,,1.8,1.0,1.6*38
$GPRMC,101732.000,A,4107.4230,N,00335.1060,W,55.93,213.27,310514,,,A*42
$GPGGA,101733.000,4107.4099,N,00335.1171,W,1,08,1.0,1387.3,M,51.7,M,,0000*78
$GPGSA,A,3,17,05,12,15,24,18,28,26,,,,,1.8,1.0,1.6*38
$GPRMC,101733.000,A,4107.4099,N,00335.1171,W,56.49,211.80,310514,,,A*48
$GPGGA,101734.000,4107.3966,N,00335.1280,W,6,00,50.0,1385.8,M,51.7,M,,0000*4E
$GPGSA,A,2,,,,,,,,,,,,,50.0,50.0,50.0*06
$GPGSV,3,1,09,15,82,321,28,26,53,109,33,24,49,278,,18,30,301,28*78
$GPGSV,3,2,09,28,26,043,14,17,20,095,25,12,16,205,25,05,13,178,25*78
$GPGSV,3,3,09,22,03,325,*47
$GPRMC,101734.000,V,4107.3966,N,00335.1280,W,56.49,211.80,310514,,,E*5F
$GPGGA,101735.000,4107.3832,N,00335.1390,W,6,00,50.0,1384.3,M,51.7,M,,0000*45
$GPGSA,A,2,,,,,,,,,,,,,50.0,50.0,50.0*06
$GPRMC,101735.000,V,4107.3832,N,00335.1390,W,56.49,211.80,310514,,,E*5E
$GPGGA,101736.000,4107.3691,N,00335.1481,W,1,06,1.3,1382.8,M,51.7,M,,0000*7D
$GPGSA,A,3,05,12,15,24,28,26,,,,,,,2.2,1.3,1.8*33
$GPRMC,101736.000,A,4107.3691,N,00335.1481,W,56.25,207.29,310514,,,A*40
$GPGGA,101737.000,4107.3539,N,00335.1566,W,1,07,1.1,1381.4,M,51.7,M,,0000*79
$GPGSA,A,3,05,12,15,24,18,28,26,,,,,,1.9,1.1,1.6*3E
$GPRMC,101737.000,A,4107.3539,N,00335.1566,W,57.93,204.01,310514,,,A*4D
$GPGGA,101738.000,4107.3379,N,00335.1640,W,1,07,1.1,1380.9,M,51.7,M,,0000*7F
$GPGSA,A,3,05,12,15,24,18,28,26,,,,,,1.9,1.1,1.6*3E
$GPRMC,101738.000,A,4107.3379,N,00335.1640,W,59.23,200.16,310514,,,A*40
$GPGGA,101739.000,4107.3223,N,00335.1704,W,1,07,1.1,1378.4,M,51.7,M,,0000*7B
$GPGSA,A,3,17,12,15,24,18,28,26,,,,,,1.9,1.1,1.6*3D
$GPGSV,3,1,09,15,82,321,22,26,53,109,29,24,49,278,31,18,30,301,31*73
$GPGSV,3,2,09,28,26,043,15,17,20,095,15,12,16,205,32,05,13,178,08*73
$GPGSV,3,3,09,22,03,325,*47
$GPRMC,101739.000,A,4107.3223,N,00335.1704,W,60.14,198.26,310514,,,A*41
$GPGGA,101740.000,4107.3060,N,00335.1763,W,1,07,1.1,1377.2,M,51.7,M,,0000*78
$GPGSA,A,3,17,12,15,24,18,28,26,,,,,,1.9,1.1,1.6*3D
$GPRMC,101740.000,A,4107.3060,N,00335.1763,W,60.43,195.69,310514,,,A*4F
$GPGGA,101741.000,4107.2899,N,00335.1814,W,1,08,1.0,1375.6,M,51.7,M,,0000*71
$GPGSA,A,3,17,05,12,15,24,18,28,26,,,,,1.8,1.0,1.6*38
$GPRMC,101741.000,A,4107.2899,N,00335.1814,W,60.37,192.40,310514,,,A*41
$GPGGA,101742.000,4107.2737,N,00335.1847,W,1,08,1.0,1372.8,M,51.7,M,,0000*76
$GPGSA,A,3,17,05,12,15,24,18,28,26,,,,,1.8,1.0,1.6*38
$GPRMC,101742.000,A,4107.2737,N,00335.1847,W,60.37,189.13,310514,,,A*43
$GPGGA,101743.000,4107.2569,N,00335.1870,W,1,08,1.0,1371.1,M,51.7,M,,0000*70
$GPGSA,A,3,17,05,12,15,24,18,28,26,,,,,1.8,1.0,1.6*38
$GPRMC,101743.000,A,4107.2569,N,00335.1870,W,60.81,186.41,310514,,,A*4A
$GPGGA,101744.000,4107.2400,N,00335.1883,W,1,08,1.0,1368.6,M,51.7,M,,0000*7A
$GPGSA,A,3,17,05,12,15,24,18,28,26,,,,,1.8,1.0,1.6*38
$GPGSV,3,1,09,15,82,321,23,26,53,109,22,24,49,278,32,18,30,301,30*7B
$GPGSV,3,2,09,28,26,043,28,17,20,095,26,12,16,205,32,05,13,178,14*70
$GPGSV,3,3,09,22,03,325,*47
$GPRMC,101744.000,A,4107.2400,N,00335.1883,W,61.03,184.17,310514,,,A*45
$GPGGA,101745.000,4107.2230,N,00335.1893,W,1,08,1.0,1366.0,M,51.7,M,,0000*77
$GPGSA,A,3,17,05,12,15,24,18,28,26,,,,,1.8,1.0,1.6*38
$GPRMC,101745.000,A,4107.2230,N,00335.1893,W,61.34,181.87,310514,,,A*48
$GPGGA,101746.000,4107.2059,N,00335.1896,W,1,08,1.0,1364.1,M,51.7,M,,0000*7F
$GPGSA,A,3,17,05,12,15,24,18,28,26,,,,,1.8,1.0,1.6*38
$GPRMC,101746.000,A,4107.2059,N,00335.1896,W,61.39,180.49,310514,,,A*4D
$GPGGA,101747.000,4107.1887,N,00335.1894,W,1,08,1.0,1362.3,M,51.7,M,,0000*70
$GPGSA,A,3,17,05,12,15,24,18,28,26,,,,,1.8,1.0,1.6*38
$GPRMC,101747.000,A,4107.1887,N,00335.1894,W,61.89,179.57,310514,,,A*44
$GPGGA,101748.000,4107.1705,N,00335.1882,W,1,08,1.0,1361.1,M,51.7,M,,0000*7C
$GPGSA,A,3,17,05,12,15,24,18,28,26,,,,,1.8,1.0,1.6*38
$GPRMC,101748.000,A,4107.1705,N,00335.1882,W,62.48,179.60,310514,,,A*43
$GPGGA,101749.000,4107.1529,N,00335.1882,W,1,07,1.2,1359.1,M,51.7,M,,0000*77
$GPGSA,A,3,17,05,12,15,24,28,26,,,,,,2.1,1.2,1.8*37
$GPGSV,3,1,09,15,82,321,27,26,53,109,25,24,49,278,19,18,30,301,19*7A
$GPGSV,3,2,09,28,26,043,26,17,20,095,23,12,16,205,20,05,13,178,22*7D
$GPGSV,3,3,09,22,03,325,*47
$GPRMC,101749.000,A,4107.1529,N,00335.1882,W,63.43,180.37,310514,,,A*40
$GPGGA,101750.000,4107.1353,N,00335.1889,W,1,08,1.0,1357.0,M,51.7,M,,0000*7D
$GPGSA,A,3,17,05,12,15,24,18,28,26,,,,,1.8,1.0,1.6*38
$GPRMC,101750.000,A,4107.1353,N,00335.1889,W,63.62,182.40,310514,,,A*49
$GPGGA,101751.000,4107.1177,N,00335.1905,W,1,08,1.0,1354.9,M,51.7,M,,0000*77
$GPGSA,A,3,17,05,12,15,24,18,28,26,,,,,1.8,1.0,1.6*38
$GPRMC,101751.000,A,4107.1177,N,00335.1905,W,63.82,184.42,310514,,,A*43
$GPGGA,101752.000,4107.1008,N,00335.1945,W,1,08,1.0,1351.7,M,51.7,M,,0000*72
$GPGSA,A,3,17,05,12,15,24,18,28,26,,,,,1.8,1.0,1.6*38
$GPRMC,101752.000,A,4107.1008,N,00335.1945,W,63.24,187.98,310514,,,A*45
$GPGGA,101753.000,4107.0834,N,00335.1977,W,6,00,50.0,1349.8,M,51.7,M,,0000*49
$GPGSA,A,2,,,,,,,,,,,,,50.0,50.0,50.0*06
$GPRMC,101753.000,V,4107.0834,N,00335.1977,W,63.24,187.98,310514,,,E*50
$GPGGA,101754.000,4107.0660,N,00335.2009,W,6,00,50.0,1347.9,M,51.7,M,,0000*4D
$GPGSA,A,2,,,,,,,,,,,,,50.0,50.0,50.0*06
$GPGSV,3,1,09,15,83,321,28,26,52,110,25,24,49,279,28,18,30,300,29*7C
$GPGSV,3,2,09,28,25,043,26,17,21,094,26,12,17,205,,05,12,177,11*76
$GPGSV,3,3,09,22,04,325,*40
$GPRMC,101754.000,V,4107.0660,N,00335.2009,W,63.24,187.98,310514,,,E*5B
$GPGGA,101755.000,4107.0498,N,00335.2074,W,1,07,1.1,1345.7,M,51.7,M,,0000*7A
$GPGSA,A,3,17,12,15,24,18,28,26,,,,,,1.9,1.1,1.6*3D
$GPRMC,101755.000,A,4107.0498,N,00335.2074,W,61.89,191.87,310514,,,A*4A
$GPGGA,101756.000,4107.0334,N,00335.2134,W,1,06,1.1,1343.9,M,51.7,M,,0000*74
$GPGSA,A,3,17,12,15,18,28,26,,,,,,,2.0,1.1,1.7*30
$GPRMC,101756.000,A,4107.0334,N,00335.2134,W,61.98,192.63,310514,,,A*44
$GPGGA,101757.000,4107.0166,N,00335.2193,W,1,07,1.1,1342.4,M,51.7,M,,0000*70
$GPGSA,A,3,17,24,12,15,18,28,26,,,,,,1.9,1.1,1.6*3D
$GPRMC,101757.000,A,4107.0166,N,00335.2193,W,61.84,192.34,310514,,,A*42
$GPGGA,101758.000,4106.9992,N,00335.2245,W,1,07,1.1,1341.6,M,51.7,M,,0000*7D
$GPGSA,A,3,17,24,12,15,18,28,26,,,,,,1.9,1.1,1.6*3D
$GPRMC,101758.000,A,4106.9992,N,00335.2245,W,62.12,191.85,310514,,,A*4B
$GPGGA,101759.000,4106.9822,N,00335.2287,W,1,06,1.2,1339.9,M,51.7,M,,0000*7A
$GPGSA,A,3,17,24,12,15,18,28,,,,,,,2.2,1.2,1.9*3D
$GPGSV,3,1,09,15,83,321,27,26,52,110,23,24,49,279,33,18,30,300,31*76
$GPGSV,3,2,09,28,25,043,28,17,21,094,26,12,17,205,32,05,12,177,*79
$GPGSV,3,3,09,22,04,325,*40
$GPRMC,101759.000,A,4106.9822,N,00335.2287,W,61.78,189.94,310514,,,A*48
$GPGGA,101800.000,4106.9651,N,00335.2320,W,1,07,1.1,1338.1,M,51.7,M,,0000*74
$GPGSA,A,3,17,24,12,15,18,28,26,,,,,,1.9,1.1,1.6*3D
$GPRMC,101800.000,A,4106.9651,N,00335.2320,W,61.72,187.92,310514,,,A*4F

