$GPRMC,235939.000,A,4138.2011,N,00446.4969,W,57.05,23.46,060511,,,A*74
$GPGSA,A,3,07,06,18,16,21,22,31,03,19,30,,,1.4,0.9,1.1*38
$GPRMC,235940.000,A,4138.2155,N,00446.4885,W,57.02,23.89,060511,,,A*7C
$GPGGA,235941.000,4138.2300,N,00446.4798,W,1,10,0.9,719.5,M,51.6,M,,0000*4D
$GPGSA,A,3,07,06,18,16,21,22,31,03,19,30,,,1.4,0.9,1.1*38
$GPRMC,235941.000,A,4138.2300,N,00446.4798,W,57.04,24.54,060511,,,A*7D
$GPGSA,A,3,07,06,18,16,21,22,31,03,19,30,,,1.4,0.9,1.1*38
$GPRMC,235942.000,A,4138.2445,N,00446.4710,W,57.18,25.06,060511,,,A*73
$GPGSA,A,3,07,06,18,16,21,22,31,03,19,30,,,1.4,0.9,1.1*38
$GPRMC,235943.000,A,4138.2589,N,00446.4619,W,57.31,26.16,060511,,,A*72
$GPGSA,A,3,07,06,18,16,21,22,31,03,19,30,,,1.4,0.9,1.1*38
$GPRMC,235944.000,A,4138.2731,N,00446.4522,W,57.43,27.68,060511,,,A*72
$GPGGA,235945.000,4138.2872,N,00446.4420,W,1,10,0.9,720.7,M,51.6,M,,0000*4F
$GPGSA,A,3,07,06,18,16,21,22,31,03,19,30,,,1.4,0.9,1.1*38
$GPRMC,235945.000,A,4138.2872,N,00446.4420,W,57.60,29.45,060511,,,A*78
$GPGSA,A,3,07,06,18,16,21,22,31,03,19,30,,,1.4,0.9,1.1*38
$GPRMC,235946.000,A,4138.3010,N,00446.4311,W,57.95,31.26,060511,,,A*75
$GPGSA,A,3,07,06,18,16,21,22,31,03,19,30,,,1.4,0.9,1.1*38
$GPRMC,235947.000,A,4138.3147,N,00446.4196,W,58.01,33.08,060511,,,A*76
$GPGSA,A,3,07,06,18,16,21,22,31,03,19,30,,,1.4,0.9,1.1*38
$GPRMC,235948.000,A,4138.3281,N,00446.4076,W,58.30,34.59,060511,,,A*7E
$GPGGA,235949.000,4138.3413,N,00446.3950,W,1,10,0.9,722.2,M,51.6,M,,0000*43
$GPGSA,A,3,07,06,18,16,21,22,31,03,19,30,,,1.4,0.9,1.1*38
$GPRMC,235949.000,A,4138.3413,N,00446.3950,W,58.40,35.97,060511,,,A*7C
$GPGSA,A,3,07,06,18,16,21,22,31,03,19,30,,,1.4,0.9,1.1*38
$GPRMC,235950.000,A,4138.3543,N,00446.3820,W,57.79,37.64,060511,,,A*7D
$GPGSA,A,3,07,06,18,16,21,22,31,03,19,30,,,1.4,0.9,1.1*38
$GPRMC,235951.000,A,4138.3667,N,00446.3687,W,57.38,39.46,060511,,,A*71
$GPGSA,A,3,07,06,18,16,21,22,31,03,19,30,,,1.4,0.9,1.1*38
$GPRMC,235952.000,A,4138.3788,N,00446.3548,W,56.72,41.83,060511,,,A*7B
$GPGGA,235953.000,4138.3902,N,00446.3404,W,1,10,0.9,722.7,M,51.6,M,,0000*4C
$GPGSA,A,3,07,06,18,16,21,22,31,03,19,30,,,1.4,0.9,1.1*38
$GPRMC,235953.000,A,4138.3902,N,00446.3404,W,56.32,44.11,060511,,,A*75
$GPGSA,A,3,07,18,16,21,22,31,03,19,30,,,,1.5,1.0,1.2*34
$GPRMC,235954.000,A,4138.4012,N,00446.3255,W,56.25,45.79,060511,,,A*76
$GPGSA,A,3,07,06,18,16,21,22,31,03,19,30,,,1.4,0.9,1.1*38
$GPRMC,235955.000,A,4138.4118,N,00446.3104,W,55.86,46.98,060511,,,A*7D
$GPGSA,A,3,07,06,18,16,21,22,31,03,19,30,,,1.4,0.9,1.1*38
$GPRMC,235956.000,A,4138.4223,N,00446.2952,W,55.77,47.08,060511,,,A*79
$GPGGA,235957.000,4138.4327,N,00446.2801,W,1,10,0.9,723.3,M,51.6,M,,0000*4F
$GPGSA,A,3,07,06,18,16,21,22,31,03,19,30,,,1.4,0.9,1.1*38
$GPRMC,235957.000,A,4138.4327,N,00446.2801,W,55.58,46.82,060511,,,A*74
$GPGSA,A,3,07,06,18,16,21,22,31,03,19,30,,,1.4,0.9,1.1*38
$GPRMC,235958.000,A,4138.4433,N,00446.2652,W,55.41,45.78,060511,,,A*7F
$GPGSA,A,3,07,06,18,16,21,22,31,03,19,30,,,1.4,0.9,1.1*38
$GPRMC,235959.000,A,4138.4540,N,00446.2506,W,55.35,44.63,060511,,,A*71
$GPGSA,A,3,07,06,18,16,21,22,31,03,19,30,,,1.4,0.9,1.1*38
$GPRMC,000000.000,A,4138.4650,N,00446.2362,W,55.37,44.17,070511,,,A*76
$GPGGA,000001.000,4138.4761,N,00446.2220,W,1,10,0.9,723.8,M,51.6,M,,0000*45
$GPGSA,A,3,07,06,18,16,21,22,31,03,19,30,,,1.4,0.9,1.1*38
$GPRMC,000001.000,A,4138.4761,N,00446.2220,W,55.73,43.09,070511,,,A*7B
$GPGSA,A,3,07,06,18,16,21,22,31,03,19,30,,,1.4,0.9,1.1*38
$GPRMC,000002.000,A,4138.4874,N,00446.2079,W,55.87,42.49,070511,,,A*73
$GPGSA,A,3,07,06,18,16,21,22,31,03,19,30,,,1.4,0.9,1.1*38
$GPRMC,000003.000,A,4138.4990,N,00446.1940,W,55.71,41.88,070511,,,A*7E
$GPGSA,A,3,07,06,18,16,21,22,31,03,19,30,,,1.4,0.9,1.1*38
$GPRMC,000004.000,A,4138.5108,N,00446.1804,W,55.79,40.78,070511,,,A*76
$GPGGA,000005.000,4138.5223,N,00446.1670,W,1,10,0.9,724.6,M,51.6,M,,0000*48
$GPGSA,A,3,07,06,18,16,21,22,31,03,19,30,,,1.4,0.9,1.1*38
$GPRMC,000005.000,A,4138.5223,N,00446.1670,W,55.83,40.06,070511,,,A*7C
$GPGSA,A,3,07,06,18,16,21,22,31,03,19,,,,1.5,1.0,1.2*31
$GPRMC,000006.000,A,4138.5344,N,00446.1540,W,55.86,38.72,070511,,,A*76
$GPGSA,A,3,07,06,18,16,21,22,31,03,19,,,,1.5,1.0,1.2*31
$GPRMC,000007.000,A,4138.5467,N,00446.1412,W,55.95,37.73,070511,,,A*7B
$GPGSA,A,3,07,06,18,16,21,22,31,03,19,30,,,1.4,0.9,1.1*38
$GPRMC,000008.000,A,4138.5590,N,00446.1288,W,55.37,36.69,070511,,,A*7A
$GPGGA,000009.000,4138.5712,N,00446.1168,W,1,10,0.9,724.9,M,51.6,M,,0000*42
$GPGSA,A,3,07,06,18,16,21,22,31,03,19,30,,,1.4,0.9,1.1*38
$GPRMC,000009.000,A,4138.5712,N,00446.1168,W,54.48,35.99,070511,,,A*7B
$GPGSA,A,3,07,06,18,16,21,22,31,03,19,30,,,1.4,0.9,1.1*38
$GPRMC,000010.000,A,4138.5833,N,00446.1052,W,53.60,35.31,070511,,,A*78
$GPGSA,A,3,07,06,18,16,21,22,31,03,19,30,,,1.4,0.9,1.1*38
$GPRMC,000011.000,A,4138.5954,N,00446.0940,W,53.02,34.55,070511,,,A*75
$GPGSA,A,3,07,06,18,16,21,22,31,03,19,30,,,1.4,0.9,1.1*38
$GPRMC,000012.000,A,4138.6074,N,00446.0832,W,52.10,33.62,070511,,,A*7B
$GPGGA,000013.000,4138.6194,N,00446.0728,W,1,10,0.9,724.8,M,51.6,M,,0000*40
$GPGSA,A,3,07,06,18,16,21,22,31,03,19,30,,,1.4,0.9,1.1*38
$GPRMC,000013.000,A,4138.6194,N,00446.0728,W,51.39,32.71,070511,,,A*7A
$GPGSA,A,3,06,18,16,21,22,31,03,19,30,,,,2.0,1.2,1.6*35
$GPRMC,000014.000,A,4138.6313,N,00446.0627,W,50.41,32.07,070511,,,A*71
$GPGSA,A,3,07,06,18,16,21,22,31,03,30,,,,1.5,1.0,1.1*39
$GPRMC,000015.000,A,4138.6431,N,00446.0532,W,50.45,31.42,070511,,,A*76
$GPGSA,A,2,,,,,,,,,,,,,50.0,50.0,50.0*06
$GPRMC,000016.000,V,4138.6551,N,00446.0435,W,50.45,31.42,070511,,,E*67
$GPGGA,000017.000,4138.6666,N,00446.0349,W,1,09,1.1,725.8,M,51.6,M,,0000*4D
$GPGSA,A,3,07,06,18,16,21,19,03,22,30,,,,1.7,1.1,1.3*32
$GPRMC,000017.000,A,4138.6666,N,00446.0349,W,48.06,29.36,070511,,,A*7A
$GPGSA,A,3,07,06,18,16,21,19,03,22,30,,,,1.7,1.1,1.3*32
$GPRMC,000018.000,A,4138.6781,N,00446.0267,W,47.24,28.76,070511,,,A*7A
$GPGSA,A,3,07,06,18,16,21,19,31,03,22,30,,,1.4,0.9,1.1*38
$GPRMC,000019.000,A,4138.6894,N,00446.0187,W,46.47,28.05,070511,,,A*7D
$GPGSA,A,3,07,06,18,16,21,19,31,03,22,30,,,1.4,0.9,1.1*38
$GPRMC,000020.000,A,4138.7005,N,00446.0110,W,45.99,27.41,070511,,,A*77