$GPRMC,101600.000,A,4108.554,N,00334.912,W,41.58,164.25,310514,,*2E
$GPGGA,101600.000,4108.554,N,00334.912,W,1,00,0.0,1406.276,M,0.0,M,,*4F
$GPVTG,164.252,T,0,M,41.577,N,77.000,K*56
$GPGSA,A,3,,,,,,,,,,,,,0.0,0.0,0.0*32
$GPRMC,101601.000,A,4108.542,N,00334.908,W,42.12,166.83,310514,,*20
$GPGGA,101601.000,4108.542,N,00334.908,W,1,00,0.0,1407.493,M,0.0,M,,*4E
$GPVTG,166.827,T,0,M,42.117,N,78.000,K*52
$GPGSA,A,3,,,,,,,,,,,,,0.0,0.0,0.0*32
$GPRMC,101602.000,A,4108.531,N,00334.905,W,42.12,166.83,310514,,*2A
$GPGGA,101602.000,4108.531,N,00334.905,W,1,00,0.0,1408.710,M,0.0,M,,*43
$GPVTG,166.828,T,0,M,42.117,N,78.000,K*5D
$GPGSA,A,3,,,,,,,,,,,,,0.0,0.0,0.0*32
$GPRMC,101603.000,A,4108.519,N,00334.902,W,42.66,169.80,310514,,*29
$GPGGA,101603.000,4108.519,N,00334.902,W,1,00,0.0,1409.316,M,0.0,M,,*4C
$GPVTG,169.805,T,0,M,42.657,N,79.000,K*5F
$GPGSA,A,3,,,,,,,,,,,,,0.0,0.0,0.0*32
$GPRMC,101604.000,A,4108.507,N,00334.900,W,42.66,172.18,310514,,*28
$GPGGA,101604.000,4108.507,N,00334.900,W,1,00,0.0,1411.379,M,0.0,M,,*46
$GPVTG,172.177,T,0,M,42.657,N,79.000,K*59
$GPGSA,A,3,,,,,,,,,,,,,0.0,0.0,0.0*32
$GPRMC,101605.000,A,4108.496,N,00334.898,W,43.20,172.37,310514,,*2E
$GPGGA,101605.000,4108.496,N,00334.898,W,1,00,0.0,1412.032,M,0.0,M,,*41
$GPVTG,172.372,T,0,M,43.197,N,80.000,K*52
$GPGSA,A,3,,,,,,,,,,,,,0.0,0.0,0.0*32
$GPRMC,101606.000,A,4108.483,N,00334.896,W,43.20,174.95,310514,,*29
$GPGGA,101606.000,4108.483,N,00334.896,W,1,00,0.0,1413.484,M,0.0,M,,*40
$GPVTG,174.949,T,0,M,43.197,N,80.000,K*56
$GPGSA,A,3,,,,,,,,,,,,,0.0,0.0,0.0*32
$GPRMC,101607.000,A,4108.472,N,00334.896,W,43.74,177.56,310514,,*2B
$GPGGA,101607.000,4108.472,N,00334.896,W,1,00,0.0,1414.232,M,0.0,M,,*43
$GPVTG,177.559,T,0,M,43.737,N,81.000,K*55
$GPGSA,A,3,,,,,,,,,,,,,0.0,0.0,0.0*32
$GPRMC,101608.000,A,4108.459,N,00334.896,W,43.74,180.00,310514,,*26
$GPGGA,101608.000,4108.459,N,00334.896,W,1,00,0.0,1415.120,M,0.0,M,,*44
$GPVTG,179.996,T,0,M,43.737,N,81.000,K*54
$GPGSA,A,3,,,,,,,,,,,,,0.0,0.0,0.0*32
$GPRMC,101609.000,A,4108.447,N,00334.896,W,44.28,182.51,310514,,*20
$GPGGA,101609.000,4108.447,N,00334.896,W,1,00,0.0,1416.714,M,0.0,M,,*48
$GPVTG,182.511,T,0,M,44.276,N,82.000,K*57
$GPGSA,A,3,,,,,,,,,,,,,0.0,0.0,0.0*32
$GPRMC,101610.000,A,4108.435,N,00334.897,W,44.28,182.51,310514,,*2C
$GPGGA,101610.000,4108.435,N,00334.897,W,1,00,0.0,1418.307,M,0.0,M,,*4C
$GPVTG,182.511,T,0,M,44.276,N,82.000,K*57
$GPGSA,A,3,,,,,,,,,,,,,0.0,0.0,0.0*32
$GPRMC,101611.000,A,4108.422,N,00334.899,W,44.82,184.85,310514,,*2A
$GPGGA,101611.000,4108.422,N,00334.899,W,1,00,0.0,1419.290,M,0.0,M,,*4B
$GPVTG,184.847,T,0,M,44.816,N,83.000,K*52
$GPGSA,A,3,,,,,,,,,,,,,0.0,0.0,0.0*32
$GPRMC,101612.000,A,4108.410,N,00334.901,W,44.82,187.48,310514,,*2A
$GPGGA,101612.000,4108.410,N,00334.901,W,1,00,0.0,1420.978,M,0.0,M,,*4E
$GPVTG,187.476,T,0,M,44.816,N,83.000,K*5F
$GPGSA,A,3,,,,,,,,,,,,,0.0,0.0,0.0*32
$GPRMC,101613.000,A,4108.397,N,00334.903,W,45.36,187.24,310514,,*25
$GPGGA,101613.000,4108.397,N,00334.903,W,1,00,0.0,1422.008,M,0.0,M,,*49
$GPVTG,187.238,T,0,M,45.356,N,84.000,K*5A
$GPGSA,A,3,,,,,,,,,,,,,0.0,0.0,0.0*32
$GPRMC,101614.000,A,4108.384,N,00334.906,W,45.36,189.60,310514,,*2B
$GPGGA,101614.000,4108.384,N,00334.906,W,1,00,0.0,1423.085,M,0.0,M,,*4D
$GPVTG,189.596,T,0,M,45.356,N,84.000,K*57
$GPGSA,A,3,,,,,,,,,,,,,0.0,0.0,0.0*32
$GPRMC,101615.000,A,4108.372,N,00334.908,W,45.36,187.24,310514,,*23
$GPGGA,101615.000,4108.372,N,00334.908,W,1,00,0.0,1424.115,M,0.0,M,,*44
$GPVTG,187.238,T,0,M,45.356,N,84.000,K*5A
$GPGSA,A,3,,,,,,,,,,,,,0.0,0.0,0.0*32
$GPRMC,101616.000,A,4108.360,N,00334.911,W,45.36,190.35,310514,,*2D
$GPGGA,101616.000,4108.360,N,00334.911,W,1,00,0.0,1425.098,M,0.0,M,,*49
$GPVTG,190.352,T,0,M,45.356,N,84.000,K*51
$GPGSA,A,3,,,,,,,,,,,,,0.0,0.0,0.0*32
$GPRMC,101617.000,A,4108.347,N,00334.913,W,44.28,187.24,310514,,*23
$GPGGA,101617.000,4108.347,N,00334.913,W,1,00,0.0,1426.129,M,0.0,M,,*47
$GPVTG,187.238,T,0,M,44.276,N,82.000,K*5E
$GPGSA,A,3,,,,,,,,,,,,,0.0,0.0,0.0*32
$GPRMC,101618.000,A,4108.335,N,00334.915,W,43.20,187.48,310514,,*2A
$GPGGA,101618.000,4108.335,N,00334.915,W,1,00,0.0,1427.817,M,0.0,M,,*4E
$GPVTG,187.475,T,0,M,43.197,N,80.000,K*58
$GPGSA,A,3,,,,,,,,,,,,,0.0,0.0,0.0*32
$GPRMC,101619.000,A,4108.323,N,00334.917,W,42.12,187.85,310514,,*2F
$GPGGA,101619.000,4108.323,N,00334.917,W,1,00,0.0,1428.754,M,0.0,M,,*4D
$GPVTG,187.854,T,0,M,42.117,N,78.000,K*59
$GPGSA,A,3,,,,,,,,,,,,,0.0,0.0,0.0*32
$GPRMC,101620.000,A,4108.312,N,00334.919,W,41.04,188.55,310514,,*2F
$GPGGA,101620.000,4108.312,N,00334.919,W,1,00,0.0,1429.597,M,0.0,M,,*47
$GPVTG,188.551,T,0,M,41.037,N,76.000,K*50
$GPGSA,A,3,,,,,,,,,,,,,0.0,0.0,0.0*32
$GPRMC,101621.000,A,4108.300,N,00334.922,W,40.50,188.25,310514,,*22
$GPGGA,101621.000,4108.300,N,00334.922,W,1,00,0.0,1429.782,M,0.0,M,,*4B
$GPVTG,188.255,T,0,M,40.497,N,75.000,K*5F
$GPGSA,A,3,,,,,,,,,,,,,0.0,0.0,0.0*32
$GPRMC,101622.000,A,4108.289,N,00334.924,W,39.96,188.55,310514,,*24
$GPGGA,101622.000,4108.289,N,00334.924,W,1,00,0.0,1430.625,M,0.0,M,,*4A
$GPVTG,188.551,T,0,M,39.957,N,74.000,K*52
$GPGSA,A,3,,,,,,,,,,,,,0.0,0.0,0.0*32
$GPRMC,101623.000,A,4108.278,N,00334.926,W,40.50,188.55,310514,,*2D
$GPGGA,101623.000,4108.278,N,00334.926,W,1,00,0.0,1431.469,M,0.0,M,,*4C
$GPVTG,188.551,T,0,M,40.497,N,75.000,K*5C
$GPGSA,A,3,,,,,,,,,,,,,0.0,0.0,0.0*32
$GPRMC,101624.000,A,4108.267,N,00334.928,W,40.50,188.55,310514,,*2A
$GPGGA,101624.000,4108.267,N,00334.928,W,1,00,0.0,1432.312,M,0.0,M,,*43
$GPVTG,188.551,T,0,M,40.497,N,75.000,K*5C
$GPGSA,A,3,,,,,,,,,,,,,0.0,0.0,0.0*32
$GPRMC,101625.000,A,4108.255,N,00334.931,W,40.50,188.55,310514,,*22
$GPGGA,101625.000,4108.255,N,00334.931,W,1,00,0.0,1433.155,M,0.0,M,,*4B
$GPVTG,188.551,T,0,M,40.497,N,75.000,K*5C
$GPGSA,A,3,,,,,,,,,,,,,0.0,0.0,0.0*32
$GPRMC,101626.000,A,4108.244,N,00334.933,W,41.04,188.55,310514,,*23
$GPGGA,101626.000,4108.244,N,00334.933,W,1,00,0.0,1433.999,M,0.0,M,,*42
$GPVTG,188.551,T,0,M,41.037,N,76.000,K*50
$GPGSA,A,3,,,,,,,,,,,,,0.0,0.0,0.0*32
$GPRMC,101627.000,A,4108.233,N,00334.935,W,41.04,188.25,310514,,*23
$GPGGA,101627.000,4108.233,N,00334.935,W,1,00,0.0,1434.184,M,0.0,M,,*46
$GPVTG,188.255,T,0,M,41.037,N,76.000,K*53
$GPGSA,A,3,,,,,,,,,,,,,0.0,0.0,0.0*32
$GPRMC,101628.000,A,4108.222,N,00334.937,W,41.04,188.55,310514,,*29
$GPGGA,101628.000,4108.222,N,00334.937,W,1,00,0.0,1435.028,M,0.0,M,,*4D
$GPVTG,188.551,T,0,M,41.037,N,76.000,K*50
$GPGSA,A,3,,,,,,,,,,,,,0.0,0.0,0.0*32
$GPRMC,101629.000,A,4108.210,N,00334.939,W,41.04,188.25,310514,,*20
$GPGGA,101629.000,4108.210,N,00334.939,W,1,00,0.0,1435.214,M,0.0,M,,*4E
$GPVTG,188.255,T,0,M,41.037,N,76.000,K*53
$GPGSA,A,3,,,,,,,,,,,,,0.0,0.0,0.0*32
$GPRMC,101630.000,A,4108.199,N,00334.942,W,41.58,188.68,310514,,*26
$GPGGA,101630.000,4108.199,N,00334.942,W,1,00,0.0,1434.648,M,0.0,M,,*44
$GPVTG,188.680,T,0,M,41.577,N,77.000,K*5F
$GPGSA,A,3,,,,,,,,,,,,,0.0,0.0,0.0*32
$GPRMC,101631.000,A,4108.187,N,00334.943,W,41.58,185.64,310514,,*28
$GPGGA,101631.000,4108.187,N,00334.943,W,1,00,0.0,1434.787,M,0.0,M,,*49
$GPVTG,185.644,T,0,M,41.577,N,77.000,K*5A
$GPGSA,A,3,,,,,,,,,,,,,0.0,0.0,0.0*32
$GPRMC,101700.000,A,4107.849,N,00335.049,W,45.36,193.20,310514,,*26
$GPGGA,101700.000,4107.849,N,00335.049,W,1,00,0.0,1437.445,M,0.0,M,,*42
$GPVTG,193.196,T,0,M,45.356,N,84.000,K*58
$GPGSA,A,3,,,,,,,,,,,,,0.0,0.0,0.0*32
$GPRMC,101702.000,A,4107.825,N,00335.049,W,46.98,180.56,310514,,*2A
$GPGGA,101702.000,4107.825,N,00335.049,W,1,00,0.0,1431.995,M,0.0,M,,*4C
$GPVTG,180.557,T,0,M,46.976,N,87.000,K*5B
$GPGSA,A,3,,,,,,,,,,,,,0.0,0.0,0.0*32
$GPRMC,101703.000,A,4107.813,N,00335.048,W,46.98,175.48,310514,,*2A
$GPGGA,101703.000,4107.813,N,00335.048,W,1,00,0.0,1429.223,M,0.0,M,,*46
$GPVTG,175.477,T,0,M,46.976,N,87.000,K*52
$GPGSA,A,3,,,,,,,,,,,,,0.0,0.0,0.0*32
$GPRMC,101704.000,A,4107.799,N,00335.046,W,46.98,175.38,310514,,*29
$GPGGA,101704.000,4107.799,N,00335.046,W,1,00,0.0,1429.458,M,0.0,M,,*48
$GPVTG,175.385,T,0,M,46.976,N,87.000,K*58
$GPGSA,A,3,,,,,,,,,,,,,0.0,0.0,0.0*32
$GPRMC,101705.000,A,4107.785,N,00335.044,W,47.52,173.29,310514,,*26
$GPGGA,101705.000,4107.785,N,00335.044,W,1,00,0.0,1427.484,M,0.0,M,,*49
$GPVTG,173.287,T,0,M,47.516,N,88.000,K*59
$GPGSA,A,3,,,,,,,,,,,,,0.0,0.0,0.0*32
$GPRMC,101706.000,A,4107.773,N,00335.041,W,47.52,168.43,310514,,*2F
$GPGGA,101706.000,4107.773,N,00335.041,W,1,00,0.0,1426.075,M,0.0,M,,*4D
$GPVTG,168.432,T,0,M,47.516,N,88.000,K*5B
$GPGSA,A,3,,,,,,,,,,,,,0.0,0.0,0.0*32
$GPRMC,101707.000,A,4107.760,N,00335.037,W,47.52,168.43,310514,,*2D
$GPGGA,101707.000,4107.760,N,00335.037,W,1,00,0.0,1424.665,M,0.0,M,,*4A
$GPVTG,168.432,T,0,M,47.516,N,88.000,K*5B
$GPGSA,A,3,,,,,,,,,,,,,0.0,0.0,0.0*32
$GPRMC,101708.000,A,4107.747,N,00335.032,W,48.06,163.90,310514,,*29
$GPGGA,101708.000,4107.747,N,00335.032,W,1,00,0.0,1423.162,M,0.0,M,,*42
$GPVTG,163.905,T,0,M,48.056,N,89.000,K*56
$GPGSA,A,3,,,,,,,,,,,,,0.0,0.0,0.0*32
$GPRMC,101709.000,A,4107.734,N,00335.027,W,48.06,163.62,310514,,*25
$GPGGA,101709.000,4107.734,N,00335.027,W,1,00,0.0,1420.906,M,0.0,M,,*4A
$GPVTG,163.616,T,0,M,48.056,N,89.000,K*5B
$GPGSA,A,3,,,,,,,,,,,,,0.0,0.0,0.0*32
$GPRMC,101710.000,A,4107.721,N,00335.022,W,48.60,163.90,310514,,*21
$GPGGA,101710.000,4107.721,N,00335.022,W,1,00,0.0,1419.403,M,0.0,M,,*41
$GPVTG,163.905,T,0,M,48.596,N,90.000,K*57
$GPGSA,A,3,,,,,,,,,,,,,0.0,0.0,0.0*32
$GPRMC,101711.000,A,4107.707,N,00335.017,W,48.60,164.63,310514,,*29
$GPGGA,101711.000,4107.707,N,00335.017,W,1,00,0.0,1417.994,M,0.0,M,,*4F
$GPVTG,164.627,T,0,M,48.596,N,90.000,K*5F
$GPGSA,A,3,,,,,,,,,,,,,0.0,0.0,0.0*32
$GPRMC,101712.000,A,4107.695,N,00335.013,W,48.60,166.15,310514,,*27
$GPGGA,101712.000,4107.695,N,00335.013,W,1,00,0.0,1416.538,M,0.0,M,,*49
$GPVTG,166.151,T,0,M,48.596,N,90.000,K*5B
$GPGSA,A,3,,,,,,,,,,,,,0.0,0.0,0.0*32
$GPRMC,101713.000,A,4107.681,N,00335.009,W,49.14,166.56,310514,,*2D
$GPGGA,101713.000,4107.681,N,00335.009,W,1,00,0.0,1414.424,M,0.0,M,,*48
$GPVTG,166.557,T,0,M,49.136,N,91.000,K*57
$GPGSA,A,3,,,,,,,,,,,,,0.0,0.0,0.0*32
$GPRMC,101714.000,A,4107.667,N,00335.006,W,49.14,171.11,310514,,*28
$GPGGA,101714.000,4107.667,N,00335.006,W,1,00,0.0,1413.156,M,0.0,M,,*4F
$GPVTG,171.112,T,0,M,49.136,N,91.000,K*54
$GPGSA,A,3,,,,,,,,,,,,,0.0,0.0,0.0*32
$GPRMC,101715.000,A,4107.654,N,00335.004,W,49.68,173.29,310514,,*29
$GPGGA,101715.000,4107.654,N,00335.004,W,1,00,0.0,1411.184,M,0.0,M,,*41
$GPVTG,173.287,T,0,M,49.676,N,92.000,K*59
$GPGSA,A,3,,,,,,,,,,,,,0.0,0.0,0.0*32
$GPRMC,101716.000,A,4107.640,N,00335.002,W,49.68,175.54,310514,,*25
$GPGGA,101716.000,4107.640,N,00335.002,W,1,00,0.0,1410.010,M,0.0,M,,*4C
$GPVTG,175.541,T,0,M,49.676,N,92.000,K*52
$GPGSA,A,3,,,,,,,,,,,,,0.0,0.0,0.0*32
$GPRMC,101717.000,A,4107.626,N,00335.002,W,49.68,180.00,310514,,*2F
$GPGGA,101717.000,4107.626,N,00335.002,W,1,00,0.0,1408.273,M,0.0,M,,*43
$GPVTG,179.996,T,0,M,49.676,N,92.000,K*58
$GPGSA,A,3,,,,,,,,,,,,,0.0,0.0,0.0*32
$GPRMC,101718.000,A,4107.612,N,00335.002,W,50.22,180.00,310514,,*21
$GPGGA,101718.000,4107.612,N,00335.002,W,1,00,0.0,1407.194,M,0.0,M,,*4E
$GPVTG,179.996,T,0,M,50.216,N,93.000,K*53
$GPGSA,A,3,,,,,,,,,,,,,0.0,0.0,0.0*32
$GPRMC,101719.000,A,4107.598,N,00335.004,W,50.76,184.30,310514,,*21
$GPGGA,101719.000,4107.598,N,00335.004,W,1,00,0.0,1405.552,M,0.0,M,,*44
$GPVTG,184.296,T,0,M,50.756,N,94.000,K*5C
$GPGSA,A,3,,,,,,,,,,,,,0.0,0.0,0.0*32
$GPRMC,101720.000,A,4107.584,N,00335.006,W,51.30,186.42,310514,,*20
$GPGGA,101720.000,4107.584,N,00335.006,W,1,00,0.0,1403.957,M,0.0,M,,*4E
$GPVTG,186.421,T,0,M,51.296,N,95.000,K*5D
$GPGSA,A,3,,,,,,,,,,,,,0.0,0.0,0.0*32
$GPRMC,101721.000,A,4107.569,N,00335.009,W,51.84,190.59,310514,,*2F
$GPGGA,101721.000,4107.569,N,00335.009,W,1,00,0.0,1402.456,M,0.0,M,,*4E
$GPVTG,190.594,T,0,M,51.836,N,96.000,K*56
$GPGSA,A,3,,,,,,,,,,,,,0.0,0.0,0.0*32
$GPRMC,101722.000,A,4107.555,N,00335.014,W,51.84,193.07,310514,,*27
$GPGGA,101722.000,4107.555,N,00335.014,W,1,00,0.0,1400.250,M,0.0,M,,*4C
$GPVTG,193.071,T,0,M,51.836,N,96.000,K*5B
$GPGSA,A,3,,,,,,,,,,,,,0.0,0.0,0.0*32
$GPRMC,101723.000,A,4107.542,N,00335.019,W,51.84,195.54,310514,,*2D
$GPGGA,101723.000,4107.542,N,00335.019,W,1,00,0.0,1398.749,M,0.0,M,,*4D
$GPVTG,195.542,T,0,M,51.836,N,96.000,K*58
$GPGSA,A,3,,,,,,,,,,,,,0.0,0.0,0.0*32
$GPRMC,101724.000,A,4107.527,N,00335.025,W,52.38,199.06,310514,,*29
$GPGGA,101724.000,4107.527,N,00335.025,W,1,00,0.0,1396.685,M,0.0,M,,*49
$GPVTG,199.058,T,0,M,52.376,N,97.000,K*57
$GPGSA,A,3,,,,,,,,,,,,,0.0,0.0,0.0*32
$GPRMC,101725.000,A,4107.514,N,00335.032,W,52.38,201.52,310514,,*2D
$GPGGA,101725.000,4107.514,N,00335.032,W,1,00,0.0,1395.326,M,0.0,M,,*41
$GPVTG,201.522,T,0,M,52.376,N,97.000,K*5D
$GPGSA,A,3,,,,,,,,,,,,,0.0,0.0,0.0*32
$GPRMC,101726.000,A,4107.500,N,00335.040,W,52.38,204.08,310514,,*24
$GPGGA,101726.000,4107.500,N,00335.040,W,1,00,0.0,1393.262,M,0.0,M,,*45
$GPVTG,204.078,T,0,M,52.376,N,97.000,K*52
$GPGSA,A,3,,,,,,,,,,,,,0.0,0.0,0.0*32
$GPRMC,101728.000,A,4107.474,N,00335.059,W,53.46,208.45,310514,,*2D
$GPGGA,101728.000,4107.474,N,00335.059,W,1,00,0.0,1390.638,M,0.0,M,,*49
$GPVTG,208.453,T,0,M,53.456,N,99.000,K*59
$GPGSA,A,3,,,,,,,,,,,,,0.0,0.0,0.0*32
$GPRMC,101729.000,A,4107.461,N,00335.070,W,54.00,211.90,310514,,*26
$GPGGA,101729.000,4107.461,N,00335.070,W,1,00,0.0,1389.421,M,0.0,M,,*45
$GPVTG,211.896,T,0,M,53.996,N,100.000,K*64
$GPGSA,A,3,,,,,,,,,,,,,0.0,0.0,0.0*32
$GPRMC,101730.000,A,4107.449,N,00335.081,W,54.00,213.57,310514,,*23
$GPGGA,101730.000,4107.449,N,00335.081,W,1,00,0.0,1388.110,M,0.0,M,,*4F
$GPVTG,213.570,T,0,M,53.996,N,100.000,K*63
$GPGSA,A,3,,,,,,,,,,,,,0.0,0.0,0.0*32
$GPRMC,101731.000,A,4107.436,N,00335.092,W,54.54,214.35,310514,,*2A
$GPGGA,101731.000,4107.436,N,00335.092,W,1,00,0.0,1386.188,M,0.0,M,,*4B
$GPVTG,214.352,T,0,M,54.536,N,101.000,K*62
$GPGSA,A,3,,,,,,,,,,,,,0.0,0.0,0.0*32
$GPRMC,101732.000,A,4107.423,N,00335.104,W,55.08,213.52,310514,,*2D
$GPGGA,101732.000,4107.423,N,00335.104,W,1,00,0.0,1385.018,M,0.0,M,,*49
$GPVTG,213.519,T,0,M,55.076,N,102.000,K*6F
$GPGSA,A,3,,,,,,,,,,,,,0.0,0.0,0.0*32
$GPRMC,101733.000,A,4107.410,N,00335.115,W,56.16,211.90,310514,,*2C
$GPGGA,101733.000,4107.410,N,00335.115,W,1,00,0.0,1383.801,M,0.0,M,,*4E
$GPVTG,211.896,T,0,M,56.156,N,104.000,K*61
$GPGSA,A,3,,,,,,,,,,,,,0.0,0.0,0.0*32
$GPRMC,101734.000,A,4107.397,N,00335.125,W,56.70,211.11,310514,,*29
$GPGGA,101734.000,4107.397,N,00335.125,W,1,00,0.0,1381.927,M,0.0,M,,*45
$GPVTG,211.112,T,0,M,56.695,N,105.000,K*6D
$GPGSA,A,3,,,,,,,,,,,,,0.0,0.0,0.0*32
$GPRMC,101735.000,A,4107.383,N,00335.136,W,57.24,210.35,310514,,*28
$GPGGA,101735.000,4107.383,N,00335.136,W,1,00,0.0,1380.804,M,0.0,M,,*42
$GPVTG,210.353,T,0,M,57.235,N,106.000,K*67
$GPGSA,A,3,,,,,,,,,,,,,0.0,0.0,0.0*32
$GPRMC,101736.000,A,4107.368,N,00335.145,W,57.78,205.66,310514,,*21
$GPGGA,101736.000,4107.368,N,00335.145,W,1,00,0.0,1379.682,M,0.0,M,,*46
$GPVTG,205.661,T,0,M,57.775,N,107.000,K*67
$GPGSA,A,3,,,,,,,,,,,,,0.0,0.0,0.0*32
$GPRMC,101737.000,A,4107.354,N,00335.154,W,58.32,203.37,310514,,*2C
$GPGGA,101737.000,4107.354,N,00335.154,W,1,00,0.0,1377.855,M,0.0,M,,*42
$GPVTG,203.366,T,0,M,58.315,N,108.000,K*61
$GPGSA,A,3,,,,,,,,,,,,,0.0,0.0,0.0*32
$GPRMC,101738.000,A,4107.339,N,00335.162,W,58.32,201.63,310514,,*2E
$GPGGA,101738.000,4107.339,N,00335.162,W,1,00,0.0,1375.980,M,0.0,M,,*48
$GPVTG,201.634,T,0,M,58.315,N,108.000,K*61
$GPGSA,A,3,,,,,,,,,,,,,0.0,0.0,0.0*32
$GPRMC,101739.000,A,4107.323,N,00335.169,W,58.86,198.85,310514,,*2B
$GPGGA,101739.000,4107.323,N,00335.169,W,1,00,0.0,1374.154,M,0.0,M,,*49
$GPVTG,198.847,T,0,M,58.855,N,109.000,K*66
$GPGSA,A,3,,,,,,,,,,,,,0.0,0.0,0.0*32
$GPRMC,101740.000,A,4107.307,N,00335.174,W,59.40,194.50,310514,,*20
$GPGGA,101740.000,4107.307,N,00335.174,W,1,00,0.0,1372.327,M,0.0,M,,*4D
$GPVTG,194.499,T,0,M,59.395,N,110.000,K*6B
$GPGSA,A,3,,,,,,,,,,,,,0.0,0.0,0.0*32
$GPRMC,101741.000,A,4107.290,N,00335.179,W,59.94,192.74,310514,,*2A
$GPGGA,101741.000,4107.290,N,00335.179,W,1,00,0.0,1370.453,M,0.0,M,,*48
$GPVTG,192.738,T,0,M,59.935,N,111.000,K*64
$GPGSA,A,3,,,,,,,,,,,,,0.0,0.0,0.0*32
$GPRMC,101742.000,A,4107.274,N,00335.183,W,60.48,188.83,310514,,*2E
$GPGGA,101742.000,4107.274,N,00335.183,W,1,00,0.0,1369.237,M,0.0,M,,*48
$GPVTG,188.825,T,0,M,60.475,N,112.000,K*6C
$GPGSA,A,3,,,,,,,,,,,,,0.0,0.0,0.0*32
$GPRMC,101743.000,A,4107.257,N,00335.185,W,60.48,186.85,310514,,*20
$GPGGA,101743.000,4107.257,N,00335.185,W,1,00,0.0,1367.316,M,0.0,M,,*42
$GPVTG,186.854,T,0,M,60.475,N,112.000,K*64
$GPGSA,A,3,,,,,,,,,,,,,0.0,0.0,0.0*32
$GPRMC,101744.000,A,4107.240,N,00335.187,W,61.02,185.20,310514,,*20
$GPGGA,101744.000,4107.240,N,00335.187,W,1,00,0.0,1366.006,M,0.0,M,,*42
$GPVTG,185.196,T,0,M,61.015,N,113.000,K*62
$GPGSA,A,3,,,,,,,,,,,,,0.0,0.0,0.0*32
$GPRMC,101745.000,A,4107.222,N,00335.189,W,61.56,183.03,310514,,*2D
$GPGGA,101745.000,4107.222,N,00335.189,W,1,00,0.0,1364.086,M,0.0,M,,*43
$GPVTG,183.027,T,0,M,61.555,N,114.000,K*69
$GPGSA,A,3,,,,,,,,,,,,,0.0,0.0,0.0*32
$GPRMC,101746.000,A,4107.205,N,00335.189,W,61.56,179.65,310514,,*2E
$GPGGA,101746.000,4107.205,N,00335.189,W,1,00,0.0,1361.977,M,0.0,M,,*47
$GPVTG,179.653,T,0,M,61.555,N,114.000,K*69
$GPGSA,A,3,,,,,,,,,,,,,0.0,0.0,0.0*32
$GPRMC,101747.000,A,4107.188,N,00335.188,W,62.10,179.55,310514,,*2A
$GPGGA,101747.000,4107.188,N,00335.188,W,1,00,0.0,1360.621,M,0.0,M,,*4C
$GPVTG,179.549,T,0,M,62.095,N,115.000,K*6A
$GPGSA,A,3,,,,,,,,,,,,,0.0,0.0,0.0*32
$GPRMC,101748.000,A,4107.170,N,00335.188,W,62.63,179.56,310514,,*25
$GPGGA,101748.000,4107.170,N,00335.188,W,1,00,0.0,1358.607,M,0.0,M,,*4B
$GPVTG,179.559,T,0,M,62.635,N,116.000,K*64
$GPGSA,A,3,,,,,,,,,,,,,0.0,0.0,0.0*32
$GPRMC,101749.000,A,4107.153,N,00335.188,W,62.63,179.55,310514,,*26
$GPGGA,101749.000,4107.153,N,00335.188,W,1,00,0.0,1357.250,M,0.0,M,,*42
$GPVTG,179.549,T,0,M,62.635,N,116.000,K*65
$GPGSA,A,3,,,,,,,,,,,,,0.0,0.0,0.0*32
$GPRMC,101750.000,A,4107.135,N,00335.189,W,62.63,183.03,310514,,*29
$GPGGA,101750.000,4107.135,N,00335.189,W,1,00,0.0,1355.331,M,0.0,M,,*4F
$GPVTG,183.027,T,0,M,62.635,N,116.000,K*6D
$GPGSA,A,3,,,,,,,,,,,,,0.0,0.0,0.0*32
$GPRMC,101751.000,A,4107.118,N,00335.192,W,62.63,186.46,310514,,*29
$GPGGA,101751.000,4107.118,N,00335.192,W,1,00,0.0,1353.506,M,0.0,M,,*4F
$GPVTG,186.456,T,0,M,62.635,N,116.000,K*6A
$GPGSA,A,3,,,,,,,,,,,,,0.0,0.0,0.0*32
$GPRMC,101752.000,A,4107.101,N,00335.195,W,62.63,188.62,310514,,*2D
$GPGGA,101752.000,4107.101,N,00335.195,W,1,00,0.0,1351.634,M,0.0,M,,*43
$GPVTG,188.617,T,0,M,62.635,N,116.000,K*63
$GPGSA,A,3,,,,,,,,,,,,,0.0,0.0,0.0*32
$GPRMC,101753.000,A,4107.084,N,00335.200,W,62.63,190.36,310514,,*27
$GPGGA,101753.000,4107.084,N,00335.200,W,1,00,0.0,1349.809,M,0.0,M,,*48
$GPVTG,190.360,T,0,M,62.635,N,116.000,K*6F
$GPGSA,A,3,,,,,,,,,,,,,0.0,0.0,0.0*32
$GPRMC,101754.000,A,4107.066,N,00335.204,W,62.63,191.74,310514,,*2F
$GPGGA,101754.000,4107.066,N,00335.204,W,1,00,0.0,1348.783,M,0.0,M,,*4B
$GPVTG,191.735,T,0,M,62.635,N,116.000,K*6A
$GPGSA,A,3,,,,,,,,,,,,,0.0,0.0,0.0*32
$GPRMC,101755.000,A,4107.049,N,00335.210,W,62.63,193.77,310514,,*27
$GPGGA,101755.000,4107.049,N,00335.210,W,1,00,0.0,1347.053,M,0.0,M,,*47
$GPVTG,193.773,T,0,M,62.635,N,116.000,K*6A
$GPGSA,A,3,,,,,,,,,,,,,0.0,0.0,0.0*32
$GPRMC,101756.000,A,4107.032,N,00335.215,W,62.10,194.16,310514,,*29
$GPGGA,101756.000,4107.032,N,00335.215,W,1,00,0.0,1344.571,M,0.0,M,,*4B
$GPVTG,194.161,T,0,M,62.095,N,115.000,K*67
$GPGSA,A,3,,,,,,,,,,,,,0.0,0.0,0.0*32
$GPRMC,101757.000,A,4107.015,N,00335.220,W,62.10,192.08,310514,,*22
$GPGGA,101757.000,4107.015,N,00335.220,W,1,00,0.0,1342.794,M,0.0,M,,*46
$GPVTG,192.080,T,0,M,62.095,N,115.000,K*6F
$GPGSA,A,3,,,,,,,,,,,,,0.0,0.0,0.0*32
$GPRMC,101758.000,A,4106.998,N,00335.225,W,62.10,192.37,310514,,*29
$GPGGA,101758.000,4106.998,N,00335.225,W,1,00,0.0,1341.675,M,0.0,M,,*4C
$GPVTG,192.365,T,0,M,62.095,N,115.000,K*67
$GPGSA,A,3,,,,,,,,,,,,,0.0,0.0,0.0*32
$GPRMC,101759.000,A,4106.981,N,00335.229,W,61.56,190.05,310514,,*2E
$GPGGA,101759.000,4106.981,N,00335.229,W,1,00,0.0,1340.603,M,0.0,M,,*49
$GPVTG,190.046,T,0,M,61.555,N,114.000,K*6C
$GPGSA,A,3,,,,,,,,,,,,,0.0,0.0,0.0*32
$GPRMC,101800.000,A,4106.964,N,00335.233,W,61.56,188.62,310514,,*25
$GPGGA,101800.000,4106.964,N,00335.233,W,1,00,0.0,1338.732,M,0.0,M,,*46
$GPVTG,188.617,T,0,M,61.555,N,114.000,K*67
$GPGSA,A,3,,,,,,,,,,,,,0.0,0.0,0.0*32

