$GPRMC,235942.000,A,4138.5322,N,00442.7709,W,16.82,93.15,281109,,,A*74
$GPGGA,235943.000,4138.5280,N,00442.7626,W,1,08,1.1,702.9,M,51.6,M,,0000*44
$GPGSA,A,3,02,05,15,10,28,07,25,08,,,,,1.6,1.1,1.2*36
$GPRMC,235943.000,A,4138.5280,N,00442.7626,W,16.95,103.39,281109,,,A*40
$GPGGA,235944.000,4138.5280,N,00442.7565,W,1,08,1.1,706.1,M,51.6,M,,0000*4B
$GPGSA,A,3,02,05,15,10,28,07,25,08,,,,,1.6,1.1,1.2*36
$GPRMC,235944.000,A,4138.5280,N,00442.7565,W,16.08,102.25,281109,,,A*4B
$GPGGA,235945.000,4138.5256,N,00442.7506,W,1,08,1.1,707.0,M,51.6,M,,0000*44
$GPGSA,A,3,02,05,15,10,28,07,25,08,,,,,1.6,1.1,1.2*36
$GPRMC,235945.000,A,4138.5256,N,00442.7506,W,16.49,113.98,281109,,,A*47
$GPGGA,235946.000,4138.5217,N,00442.7450,W,1,07,1.1,706.8,M,51.6,M,,0000*46
$GPGSA,A,3,02,05,15,10,28,25,08,,,,,,1.7,1.1,1.2*30
$GPGSV,3,1,11,10,82,186,33,05,77,284,39,08,63,052,34,28,32,125,31*7C
$GPGSV,3,2,11,15,31,284,37,07,24,047,,02,18,206,35,25,08,048,22*7C
$GPGSV,3,3,11,27,05,226,,21,03,328,22,13,02,083,09*44
$GPRMC,235946.000,A,4138.5217,N,00442.7450,W,17.55,126.34,281109,,,A*4F
$GPGGA,235947.000,4138.5172,N,00442.7403,W,1,08,1.1,706.5,M,51.6,M,,0000*43
$GPGSA,A,3,02,05,15,10,28,07,25,08,,,,,1.6,1.1,1.2*36
$GPRMC,235947.000,A,4138.5172,N,00442.7403,W,18.12,137.57,281109,,,A*41
$GPGGA,235948.000,4138.5121,N,00442.7353,W,1,08,1.1,706.3,M,51.6,M,,0000*4E
$GPGSA,A,3,02,05,15,10,28,07,25,08,,,,,1.6,1.1,1.2*36
$GPRMC,235948.000,A,4138.5121,N,00442.7353,W,19.56,143.18,281109,,,A*43
$GPGGA,235949.000,4138.5067,N,00442.7303,W,1,08,1.1,705.9,M,51.6,M,,0000*40
$GPGSA,A,3,02,05,15,10,28,07,25,08,,,,,1.6,1.1,1.2*36
$GPRMC,235949.000,A,4138.5067,N,00442.7303,W,21.18,144.24,281109,,,A*4D
$GPGGA,235950.000,4138.5009,N,00442.7254,W,1,08,1.1,706.3,M,51.6,M,,0000*4A
$GPGSA,A,3,02,05,15,10,28,07,25,08,,,,,1.6,1.1,1.2*36
$GPRMC,235950.000,A,4138.5009,N,00442.7254,W,22.82,144.46,281109,,,A*4A
$GPGGA,235951.000,4138.4949,N,00442.7199,W,1,08,1.1,705.6,M,51.6,M,,0000*43
$GPGSA,A,3,02,05,15,10,28,07,25,08,,,,,1.6,1.1,1.2*36
$GPGSV,3,1,11,10,82,186,26,05,77,284,26,08,63,052,28,28,32,125,31*7B
$GPGSV,3,2,11,15,31,284,37,07,24,047,27,02,18,206,37,25,08,048,17*7D
$GPGSV,3,3,11,27,05,226,22,21,03,328,24,13,02,083,*4B
$GPRMC,235951.000,A,4138.4949,N,00442.7199,W,23.84,143.95,281109,,,A*4B
$GPGGA,235952.000,4138.4891,N,00442.7143,W,1,08,1.1,705.4,M,51.6,M,,0000*41
$GPGSA,A,3,02,05,15,10,28,07,25,08,,,,,1.6,1.1,1.2*36
$GPRMC,235952.000,A,4138.4891,N,00442.7143,W,25.08,144.79,281109,,,A*4C
$GPGGA,235953.000,4138.4830,N,00442.7087,W,1,08,1.1,705.7,M,51.6,M,,0000*41
$GPGSA,A,3,02,05,15,10,28,07,25,08,,,,,1.6,1.1,1.2*36
$GPRMC,235953.000,A,4138.4830,N,00442.7087,W,25.79,144.81,281109,,,A*4E
$GPGGA,235954.000,4138.4768,N,00442.7030,W,1,08,1.1,705.8,M,51.6,M,,0000*47
$GPGSA,A,3,02,05,15,10,28,07,25,08,,,,,1.6,1.1,1.2*36
$GPRMC,235954.000,A,4138.4768,N,00442.7030,W,26.45,144.92,281109,,,A*49
$GPGGA,235955.000,4138.4706,N,00442.6971,W,1,08,1.1,706.0,M,51.6,M,,0000*48
$GPGSA,A,3,02,05,15,10,28,07,25,08,,,,,1.6,1.1,1.2*36
$GPRMC,235955.000,A,4138.4706,N,00442.6971,W,27.05,144.87,281109,,,A*4C
$GPGGA,235956.000,4138.4641,N,00442.6912,W,1,08,1.1,706.4,M,51.6,M,,0000*48
$GPGSA,A,3,02,05,15,10,28,07,25,08,,,,,1.6,1.1,1.2*36
$GPGSV,3,1,11,10,82,186,26,05,77,284,25,08,63,052,32,28,32,125,33*71
$GPGSV,3,2,11,15,31,284,38,07,24,047,27,02,18,206,32,25,08,048,30*72
$GPGSV,3,3,11,27,05,226,13,21,03,328,24,13,02,083,*49
$GPRMC,235956.000,A,4138.4641,N,00442.6912,W,27.72,144.89,281109,,,A*46
$GPGGA,235957.000,4138.4577,N,00442.6851,W,1,08,1.1,706.5,M,51.6,M,,0000*48
$GPGSA,A,3,02,05,15,10,28,07,25,08,,,,,1.6,1.1,1.2*36
$GPRMC,235957.000,A,4138.4577,N,00442.6851,W,27.98,144.18,281109,,,A*4B
$GPGGA,235958.000,4138.4511,N,00442.6790,W,1,07,1.1,706.9,M,51.6,M,,0000*46
$GPGSA,A,3,02,05,15,10,28,07,08,,,,,,1.9,1.1,1.5*39
$GPRMC,235958.000,A,4138.4511,N,00442.6790,W,28.34,144.95,281109,,,A*4A
$GPGGA,235959.000,4138.4446,N,00442.6728,W,1,08,1.1,706.7,M,51.6,M,,0000*46
$GPGSA,A,3,02,05,15,10,28,07,25,08,,,,,1.6,1.1,1.2*36
$GPRMC,235959.000,A,4138.4446,N,00442.6728,W,28.39,144.15,281109,,,A*4E
$GPGGA,000000.000,4138.4383,N,00442.6665,W,1,07,1.1,706.6,M,51.6,M,,0000*4F
$GPGSA,A,3,02,05,15,10,28,07,08,,,,,,1.9,1.1,1.5*39
$GPRMC,000000.000,A,4138.4383,N,00442.6665,W,28.33,144.75,291109,,,A*44
$GPGGA,000001.000,4138.4321,N,00442.6603,W,1,07,1.1,706.2,M,51.6,M,,0000*42
$GPGSA,A,3,02,05,15,10,28,07,08,,,,,,1.9,1.1,1.5*39
$GPGSV,3,1,11,10,82,186,27,05,77,284,25,08,63,052,32,28,32,125,34*77
$GPGSV,3,2,11,15,31,284,38,07,24,047,27,02,18,206,35,25,08,048,*76
$GPGSV,3,3,11,27,05,226,18,21,03,328,24,13,02,083,*42
$GPRMC,000001.000,A,4138.4321,N,00442.6603,W,27.78,144.77,291109,,,A*4F
$GPGGA,000002.000,4138.4261,N,00442.6543,W,1,07,1.1,705.9,M,51.6,M,,0000*4B
$GPGSA,A,3,02,05,15,10,28,07,08,,,,,,1.9,1.1,1.5*39
$GPRMC,000002.000,A,4138.4261,N,00442.6543,W,27.06,144.90,291109,,,A*4E
$GPGGA,000003.000,4138.4200,N,00442.6486,W,1,07,1.1,706.0,M,51.6,M,,0000*4F
$GPGSA,A,3,02,05,15,10,28,07,08,,,,,,1.9,1.1,1.5*39
$GPRMC,000003.000,A,4138.4200,N,00442.6486,W,26.48,144.89,291109,,,A*43
$GPGGA,000004.000,4138.4141,N,00442.6432,W,1,07,1.1,706.2,M,51.6,M,,0000*43
$GPGSA,A,3,02,05,15,10,28,07,08,,,,,,1.9,1.1,1.5*39
$GPRMC,000004.000,A,4138.4141,N,00442.6432,W,25.24,144.97,291109,,,A*4B
$GPGGA,000005.000,4138.4086,N,00442.6382,W,1,08,1.1,707.3,M,51.6,M,,0000*4B
$GPGSA,A,3,02,05,15,10,28,07,25,08,,,,,1.6,1.1,1.2*36
$GPRMC,000005.000,A,4138.4086,N,00442.6382,W,23.41,145.04,291109,,,A*42
$GPGGA,000006.000,4138.4036,N,00442.6336,W,1,08,1.1,707.3,M,51.6,M,,0000*4C
$GPGSA,A,3,02,05,15,10,28,07,25,08,,,,,1.6,1.1,1.2*36
$GPGSV,3,1,11,10,82,186,28,05,77,284,31,08,63,052,33,28,32,125,34*7C
$GPGSV,3,2,11,15,31,284,39,07,24,047,27,02,18,206,36,25,08,048,29*7F
$GPGSV,3,3,11,27,05,226,20,21,03,328,24,13,02,083,*49
$GPRMC,000006.000,A,4138.4036,N,00442.6336,W,20.71,145.14,291109,,,A*44
$GPGGA,000007.000,4138.3994,N,00442.6295,W,1,08,1.1,707.0,M,51.6,M,,0000*40
$GPGSA,A,3,02,05,15,10,28,07,25,08,,,,,1.6,1.1,1.2*36
$GPRMC,000007.000,A,4138.3994,N,00442.6295,W,17.66,144.06,291109,,,A*4B
$GPGGA,000008.000,4138.3959,N,00442.6261,W,1,08,1.1,706.9,M,51.6,M,,0000*4D
$GPGSA,A,3,02,05,15,10,28,07,25,08,,,,,1.6,1.1,1.2*36
$GPRMC,000008.000,A,4138.3959,N,00442.6261,W,14.85,144.41,291109,,,A*43
$GPGGA,000009.000,4138.3930,N,00442.6234,W,1,08,1.1,706.8,M,51.6,M,,0000*42
$GPGSA,A,3,02,05,15,10,28,07,25,08,,,,,1.6,1.1,1.2*36
$GPRMC,000009.000,A,4138.3930,N,00442.6234,W,12.12,144.49,291109,,,A*4D
$GPGGA,000010.000,4138.3907,N,00442.6212,W,1,08,1.1,706.8,M,51.6,M,,0000*4A
$GPGSA,A,3,02,05,15,10,28,07,25,08,,,,,1.6,1.1,1.2*36
$GPRMC,000010.000,A,4138.3907,N,00442.6212,W,9.28,145.40,291109,,,A*7E
$GPGGA,000011.000,4138.3890,N,00442.6198,W,1,07,1.1,706.8,M,51.6,M,,0000*4A
$GPGSA,A,3,02,05,15,10,28,07,08,,,,,,1.9,1.1,1.5*39
$GPGSV,3,1,11,10,82,186,32,05,77,284,30,08,63,052,33,28,32,125,35*77
$GPGSV,3,2,11,15,31,284,39,07,24,047,27,02,18,206,37,25,08,048,*75
$GPGSV,3,3,11,27,05,226,26,21,03,328,24,13,02,083,18*46
$GPRMC,000011.000,A,4138.3890,N,00442.6198,W,6.24,146.12,291109,,,A*76
$GPGGA,000012.000,4138.3880,N,00442.6189,W,1,07,1.1,706.9,M,51.6,M,,0000*49
$GPGSA,A,3,02,05,15,10,28,07,08,,,,,,1.9,1.1,1.5*39
$GPRMC,000012.000,A,4138.3880,N,00442.6189,W,4.31,145.61,291109,,,A*75
$GPGGA,000013.000,4138.3874,N,00442.6183,W,1,08,1.1,706.9,M,51.6,M,,0000*46
$GPGSA,A,3,02,05,15,10,28,07,25,08,,,,,1.6,1.1,1.2*36
$GPRMC,000013.000,A,4138.3874,N,00442.6183,W,2.50,145.30,291109,,,A*70
$GPGGA,000014.000,4138.3872,N,00442.6182,W,1,08,1.1,706.9,M,51.6,M,,0000*46
$GPGSA,A,3,02,05,15,10,28,07,25,08,,,,,1.6,1.1,1.2*36
$GPRMC,000014.000,A,4138.3872,N,00442.6182,W,0.58,146.79,291109,,,A*74
$GPGGA,000015.000,4138.3872,N,00442.6182,W,1,08,1.1,706.8,M,51.6,M,,0000*46
$GPGSA,A,3,02,05,15,10,28,07,25,08,,,,,1.6,1.1,1.2*36
$GPRMC,000015.000,A,4138.3872,N,00442.6182,W,0.06,126.74,291109,,,A*75
$GPGGA,000016.000,4138.3873,N,00442.6184,W,1,08,1.1,706.8,M,51.6,M,,0000*42
$GPGSA,A,3,02,05,15,10,28,07,25,08,,,,,1.6,1.1,1.2*36
$GPGSV,3,1,11,10,82,186,32,05,77,284,30,08,63,052,34,28,32,125,35*70
$GPGSV,3,2,11,15,31,284,39,07,24,047,32,02,18,206,37,25,08,048,30*72
$GPGSV,3,3,11,27,05,226,26,21,03,328,29,13,02,083,19*4A
$GPRMC,000016.000,A,4138.3873,N,00442.6184,W,0.00,,291109,,,A*6F
$GPGGA,000017.000,4138.3873,N,00442.6184,W,1,08,1.1,706.8,M,51.6,M,,0000*43
$GPGSA,A,3,02,05,15,10,28,07,25,08,,,,,1.6,1.1,1.2*36
$GPRMC,000017.000,A,4138.3873,N,00442.6184,W,0.00,,291109,,,A*6E
$GPGGA,000018.000,4138.3873,N,00442.6184,W,1,08,1.1,706.8,M,51.6,M,,0000*4C
$GPGSA,A,3,02,05,15,10,28,07,25,08,,,,,1.6,1.1,1.2*36
$GPRMC,000018.000,A,4138.3873,N,00442.6184,W,0.00,,291109,,,A*61
$GPGGA,000019.000,4138.3873,N,00442.6184,W,1,08,1.1,706.8,M,51.6,M,,0000*4D
$GPGSA,A,3,02,05,15,10,28,07,25,08,,,,,1.6,1.1,1.2*36
$GPRMC,000019.000,A,4138.3873,N,00442.6184,W,0.00,,291109,,,A*60
$GPGGA,000020.000,4138.3873,N,00442.6184,W,1,08,1.1,706.8,M,51.6,M,,0000*47
$GPGSA,A,3,02,05,15,10,28,07,25,08,,,,,1.6,1.1,1.2*36
$GPRMC,000020.000,A,4138.3873,N,00442.6184,W,0.00,,291109,,,A*6A
$GPGGA,000021.000,4138.3873,N,00442.6184,W,1,08,1.1,706.9,M,51.6,M,,0000*47
$GPGSA,A,3,02,05,15,10,28,07,25,08,,,,,1.6,1.1,1.2*36
$GPGSV,3,1,11,10,82,186,31,05,77,284,24,08,63,052,34,28,32,125,35*76
$GPGSV,3,2,11,15,31,284,39,07,24,047,27,02,18,206,37,25,08,048,30*76
$GPGSV,3,3,11,27,05,226,27,21,03,328,28,13,02,083,18*4B
$GPRMC,000021.000,A,4138.3873,N,00442.6184,W,2.74,142.48,291109,,,A*7F
$GPGGA,000022.000,4138.3865,N,00442.6175,W,1,08,1.1,707.0,M,51.6,M,,0000*45
$GPGSA,A,3,02,05,15,10,28,07,25,08,,,,,1.6,1.1,1.2*36
$GPRMC,000022.000,A,4138.3865,N,00442.6175,W,4.78,142.47,291109,,,A*70
$GPGGA,000023.000,4138.3851,N,00442.6162,W,1,08,1.1,707.1,M,51.6,M,,0000*44
$GPGSA,A,3,02,05,15,10,28,07,25,08,,,,,1.6,1.1,1.2*36
$GPRMC,000023.000,A,4138.3851,N,00442.6162,W,7.25,144.26,291109,,,A*7A
$GPGGA,000024.000,4138.3832,N,00442.6144,W,1,08,1.1,707.1,M,51.6,M,,0000*42
$GPGSA,A,3,02,05,15,10,28,07,25,08,,,,,1.6,1.1,1.2*36
$GPRMC,000024.000,A,4138.3832,N,00442.6144,W,9.94,143.89,291109,,,A*7A
$GPGGA,000025.000,4138.3809,N,00442.6122,W,1,08,1.1,707.3,M,51.6,M,,0000*49
$GPGSA,A,3,02,05,15,10,28,07,25,08,,,,,1.6,1.1,1.2*36
$GPRMC,000025.000,A,4138.3809,N,00442.6122,W,10.38,144.68,291109,,,A*45
$GPGGA,000026.000,4138.3787,N,00442.6101,W,1,08,1.1,707.5,M,51.6,M,,0000*44
$GPGSA,A,3,02,05,15,10,28,07,25,08,,,,,1.6,1.1,1.2*36
$GPGSV,3,1,11,10,82,186,31,05,77,284,27,08,63,052,34,28,32,125,35*75
$GPGSV,3,2,11,15,31,284,39,07,24,047,28,02,18,206,24,25,08,048,30*7B
$GPGSV,3,3,11,27,05,226,28,21,03,328,24,13,02,083,19*49
$GPRMC,000026.000,A,4138.3787,N,00442.6101,W,9.45,144.81,291109,,,A*7B
$GPGGA,000027.000,4138.3765,N,00442.6081,W,1,08,1.1,707.8,M,51.6,M,,0000*4D
$GPGSA,A,3,02,05,15,10,28,07,25,08,,,,,1.6,1.1,1.2*36
$GPRMC,000027.000,A,4138.3765,N,00442.6081,W,9.70,144.23,291109,,,A*71
$GPGGA,000028.000,4138.3741,N,00442.6058,W,1,08,1.1,707.9,M,51.6,M,,0000*41
$GPGSA,A,3,02,05,15,10,28,07,25,08,,,,,1.6,1.1,1.2*36
$GPRMC,000028.000,A,4138.3741,N,00442.6058,W,11.51,145.53,291109,,,A*40
$GPGGA,000029.000,4138.3711,N,00442.6031,W,1,08,1.1,708.1,M,51.6,M,,0000*4D
$GPGSA,A,3,02,05,15,10,28,07,25,08,,,,,1.6,1.1,1.2*36
$GPRMC,000029.000,A,4138.3711,N,00442.6031,W,13.94,144.95,291109,,,A*4B
$GPGGA,000030.000,4138.3674,N,00442.5998,W,1,07,1.1,708.3,M,51.6,M,,0000*43
$GPGSA,A,3,02,05,15,28,07,25,08,,,,,,1.8,1.1,1.4*3F
$GPRMC,000030.000,A,4138.3674,N,00442.5998,W,16.60,145.23,291109,,,A*4A
$GPGGA,000031.000,4138.3632,N,00442.5960,W,1,08,1.1,708.8,M,51.6,M,,0000*43
$GPGSA,A,3,02,05,15,10,28,07,25,08,,,,,1.6,1.1,1.2*36
$GPGSV,3,1,11,10,82,186,31,05,77,284,27,08,63,052,34,28,32,125,35*75
$GPGSV,3,2,11,15,31,284,39,07,24,047,28,02,18,206,36,25,08,048,30*78
$GPGSV,3,3,11,27,05,226,29,21,03,328,21,13,02,083,20*47
$GPRMC,000031.000,A,4138.3632,N,00442.5960,W,19.05,145.54,291109,,,A*42
$GPGGA,000032.000,4138.3588,N,00442.5920,W,1,08,1.1,709.0,M,51.6,M,,0000*4F
$GPGSA,A,3,02,05,15,10,28,07,25,08,,,,,1.6,1.1,1.2*36
$GPRMC,000032.000,A,4138.3588,N,00442.5920,W,19.22,145.22,291109,,,A*43
$GPGGA,000033.000,4138.3543,N,00442.5880,W,1,08,1.1,709.2,M,51.6,M,,0000*40
$GPGSA,A,3,02,05,15,10,28,07,25,08,,,,,1.6,1.1,1.2*36
$GPRMC,000033.000,A,4138.3543,N,00442.5880,W,18.96,145.96,291109,,,A*4F
$GPGGA,000034.000,4138.3498,N,00442.5840,W,1,08,1.1,709.4,M,51.6,M,,0000*4A
$GPGSA,A,3,02,05,15,10,28,07,25,08,,,,,1.6,1.1,1.2*36
$GPRMC,000034.000,A,4138.3498,N,00442.5840,W,19.08,146.49,291109,,,A*44
$GPGGA,000035.000,4138.3452,N,00442.5801,W,1,08,1.1,709.6,M,51.6,M,,0000*4A
$GPGSA,A,3,02,05,15,10,28,07,25,08,,,,,1.6,1.1,1.2*36
$GPRMC,000035.000,A,4138.3452,N,00442.5801,W,20.16,147.31,291109,,,A*4D
$GPGGA,000036.000,4138.3402,N,00442.5760,W,1,08,1.1,709.9,M,51.6,M,,0000*4B
$GPGSA,A,3,02,05,15,10,28,07,25,08,,,,,1.6,1.1,1.2*36
$GPGSV,3,1,11,10,81,184,25,05,77,281,31,08,62,052,33,28,33,125,29*79
$GPGSV,3,2,11,15,31,285,40,07,24,047,28,02,17,206,27,25,07,049,23*74
$GPGSV,3,3,11,27,05,227,,21,03,327,23,13,02,084,20*47
$GPRMC,000036.000,A,4138.3402,N,00442.5760,W,21.25,147.96,291109,,,A*4F
$GPGGA,000037.000,4138.3348,N,00442.5717,W,1,08,1.1,710.2,M,51.6,M,,0000*40
$GPGSA,A,3,02,05,15,10,28,07,25,08,,,,,1.6,1.1,1.2*36
$GPRMC,000037.000,A,4138.3348,N,00442.5717,W,22.82,149.89,291109,,,A*49
$GPGGA,000038.000,4138.3290,N,00442.5674,W,1,08,1.1,710.4,M,51.6,M,,0000*49
$GPGSA,A,3,02,05,15,10,28,07,25,08,,,,,1.6,1.1,1.2*36
$GPRMC,000038.000,A,4138.3290,N,00442.5674,W,24.13,151.48,291109,,,A*4C
$GPGGA,000039.000,4138.3227,N,00442.5631,W,1,07,1.1,710.5,M,51.6,M,,0000*4B
$GPGSA,A,3,02,05,15,10,28,07,25,,,,,,1.7,1.1,1.3*3E
$GPRMC,000039.000,A,4138.3227,N,00442.5631,W,25.39,153.18,291109,,,A*4E
$GPGGA,000040.000,4138.3161,N,00442.5589,W,1,08,1.1,710.5,M,51.6,M,,0000*4B
$GPGSA,A,3,02,05,15,10,28,07,25,08,,,,,1.6,1.1,1.2*36
$GPRMC,000040.000,A,4138.3161,N,00442.5589,W,26.46,154.60,291109,,,A*42
$GPGGA,000041.000,4138.3093,N,00442.5546,W,1,08,1.1,710.5,M,51.6,M,,0000*45
