$GPRMC,165058.000,A,4142.967,N,00449.228,W,53.46,146.54,190114,,*2E
$GPGGA,165058.000,4142.967,N,00449.228,W,1,00,0.0,845.348,M,0.0,M,,*7D
$GPVTG,146.535,T,0,M,53.456,N,99.000,K*51
$GPGSA,A,3,,,,,,,,,,,,,0.0,0.0,0.0*32
$GPRMC,165059.000,A,4142.954,N,00449.218,W,53.46,148.58,190114,,*2E
$GPGGA,165059.000,4142.954,N,00449.218,W,1,00,0.0,844.455,M,0.0,M,,*75
$GPVTG,148.580,T,0,M,53.456,N,99.000,K*51
$GPGSA,A,3,,,,,,,,,,,,,0.0,0.0,0.0*32
$GPRMC,165100.000,A,4142.942,N,00449.208,W,53.46,148.34,190114,,*2F
$GPGGA,165100.000,4142.942,N,00449.208,W,1,00,0.0,844.973,M,0.0,M,,*77
$GPVTG,148.339,T,0,M,53.456,N,99.000,K*55
$GPGSA,A,3,,,,,,,,,,,,,0.0,0.0,0.0*32
$GPRMC,165101.000,A,4142.929,N,00449.197,W,53.46,149.14,190114,,*25
$GPGGA,165101.000,4142.929,N,00449.197,W,1,00,0.0,844.824,M,0.0,M,,*7D
$GPVTG,149.142,T,0,M,53.456,N,99.000,K*5A
$GPGSA,A,3,,,,,,,,,,,,,0.0,0.0,0.0*32
$GPRMC,165102.000,A,4142.916,N,00449.188,W,53.46,150.98,190114,,*28
$GPGGA,165102.000,4142.916,N,00449.188,W,1,00,0.0,844.739,M,0.0,M,,*7F
$GPVTG,150.979,T,0,M,53.456,N,99.000,K*52
$GPGSA,A,3,,,,,,,,,,,,,0.0,0.0,0.0*32
$GPRMC,165103.000,A,4142.903,N,00449.177,W,54.00,149.14,190114,,*24
$GPGGA,165103.000,4142.903,N,00449.177,W,1,00,0.0,844.591,M,0.0,M,,*7A
$GPVTG,149.143,T,0,M,53.996,N,100.000,K*6B
$GPGSA,A,3,,,,,,,,,,,,,0.0,0.0,0.0*32
$GPRMC,165104.000,A,4142.890,N,00449.168,W,54.00,150.98,190114,,*2A
$GPGGA,165104.000,4142.890,N,00449.168,W,1,00,0.0,844.506,M,0.0,M,,*76
$GPVTG,150.979,T,0,M,53.996,N,100.000,K*62
$GPGSA,A,3,,,,,,,,,,,,,0.0,0.0,0.0*32
$GPRMC,165105.000,A,4142.876,N,00449.158,W,54.00,152.20,190114,,*21
$GPGGA,165105.000,4142.876,N,00449.158,W,1,00,0.0,844.499,M,0.0,M,,*7B
$GPVTG,152.195,T,0,M,53.996,N,100.000,K*6A
$GPGSA,A,3,,,,,,,,,,,,,0.0,0.0,0.0*32
$GPRMC,165106.000,A,4142.863,N,00449.148,W,54.00,150.98,190114,,*26
$GPGGA,165106.000,4142.863,N,00449.148,W,1,00,0.0,844.414,M,0.0,M,,*78
$GPVTG,150.979,T,0,M,53.996,N,100.000,K*62
$GPGSA,A,3,,,,,,,,,,,,,0.0,0.0,0.0*32
$GPRMC,165107.000,A,4142.849,N,00449.139,W,54.00,154.02,190114,,*2E
$GPGGA,165107.000,4142.849,N,00449.139,W,1,00,0.0,844.470,M,0.0,M,,*75
$GPVTG,154.022,T,0,M,53.996,N,100.000,K*61
$GPGSA,A,3,,,,,,,,,,,,,0.0,0.0,0.0*32
$GPRMC,165108.000,A,4142.836,N,00449.130,W,54.54,150.98,190114,,*26
$GPGGA,165108.000,4142.836,N,00449.130,W,1,00,0.0,844.385,M,0.0,M,,*76
$GPVTG,150.979,T,0,M,54.536,N,101.000,K*62
$GPGSA,A,3,,,,,,,,,,,,,0.0,0.0,0.0*32
$GPRMC,165109.000,A,4142.823,N,00449.121,W,54.54,154.02,190114,,*24
$GPGGA,165109.000,4142.823,N,00449.121,W,1,00,0.0,844.442,M,0.0,M,,*7F
$GPVTG,154.022,T,0,M,54.536,N,101.000,K*61
$GPGSA,A,3,,,,,,,,,,,,,0.0,0.0,0.0*32
$GPRMC,165110.000,A,4142.809,N,00449.112,W,54.54,154.02,190114,,*24
$GPGGA,165110.000,4142.809,N,00449.112,W,1,00,0.0,844.499,M,0.0,M,,*79
$GPVTG,154.022,T,0,M,54.536,N,101.000,K*61
$GPGSA,A,3,,,,,,,,,,,,,0.0,0.0,0.0*32
$GPRMC,165111.000,A,4142.795,N,00449.103,W,54.54,153.58,190114,,*27
$GPGGA,165111.000,4142.795,N,00449.103,W,1,00,0.0,843.812,M,0.0,M,,*7A
$GPVTG,153.578,T,0,M,54.536,N,101.000,K*6C
$GPGSA,A,3,,,,,,,,,,,,,0.0,0.0,0.0*32
$GPRMC,165112.000,A,4142.782,N,00449.094,W,54.54,154.02,190114,,*25
$GPGGA,165112.000,4142.782,N,00449.094,W,1,00,0.0,843.868,M,0.0,M,,*7D
$GPVTG,154.022,T,0,M,54.536,N,101.000,K*61
$GPGSA,A,3,,,,,,,,,,,,,0.0,0.0,0.0*32
$GPRMC,165113.000,A,4142.768,N,00449.085,W,54.54,155.90,190114,,*2A
$GPGGA,165113.000,4142.768,N,00449.085,W,1,00,0.0,843.988,M,0.0,M,,*77
$GPVTG,155.899,T,0,M,54.536,N,101.000,K*68
$GPGSA,A,3,,,,,,,,,,,,,0.0,0.0,0.0*32
$GPRMC,165114.000,A,4142.754,N,00449.077,W,55.08,154.02,190114,,*2D
$GPGGA,165114.000,4142.754,N,00449.077,W,1,00,0.0,844.045,M,0.0,M,,*7D
$GPVTG,154.023,T,0,M,55.076,N,102.000,K*63
$GPGSA,A,3,,,,,,,,,,,,,0.0,0.0,0.0*32
$GPRMC,165115.000,A,4142.740,N,00449.068,W,55.08,156.51,190114,,*23
$GPGGA,165115.000,4142.740,N,00449.068,W,1,00,0.0,843.500,M,0.0,M,,*74
$GPVTG,156.508,T,0,M,55.076,N,102.000,K*6D
$GPGSA,A,3,,,,,,,,,,,,,0.0,0.0,0.0*32
$GPRMC,165116.000,A,4142.726,N,00449.060,W,55.08,155.90,190114,,*26
$GPGGA,165116.000,4142.726,N,00449.060,W,1,00,0.0,843.620,M,0.0,M,,*7E
$GPVTG,155.899,T,0,M,55.076,N,102.000,K*6B
$GPGSA,A,3,,,,,,,,,,,,,0.0,0.0,0.0*32
$GPRMC,165117.000,A,4142.712,N,00449.052,W,55.08,158.72,190114,,*20
$GPGGA,165117.000,4142.712,N,00449.052,W,1,00,0.0,843.881,M,0.0,M,,*7C
$GPVTG,158.722,T,0,M,55.076,N,102.000,K*69
$GPGSA,A,3,,,,,,,,,,,,,0.0,0.0,0.0*32
$GPRMC,165118.000,A,4142.697,N,00449.044,W,55.08,156.51,190114,,*2B
$GPGGA,165118.000,4142.697,N,00449.044,W,1,00,0.0,843.336,M,0.0,M,,*7F
$GPVTG,156.509,T,0,M,55.076,N,102.000,K*6C
$GPGSA,A,3,,,,,,,,,,,,,0.0,0.0,0.0*32
$GPRMC,165119.000,A,4142.683,N,00449.037,W,55.08,157.82,190114,,*24
$GPGGA,165119.000,4142.683,N,00449.037,W,1,00,0.0,843.520,M,0.0,M,,*7E
$GPVTG,157.824,T,0,M,55.076,N,102.000,K*6F
$GPGSA,A,3,,,,,,,,,,,,,0.0,0.0,0.0*32
$GPRMC,165120.000,A,4142.669,N,00449.029,W,55.62,158.72,190114,,*29
$GPGGA,165120.000,4142.669,N,00449.029,W,1,00,0.0,843.781,M,0.0,M,,*76
$GPVTG,158.723,T,0,M,55.616,N,103.000,K*69
$GPGSA,A,3,,,,,,,,,,,,,0.0,0.0,0.0*32
$GPRMC,165121.000,A,4142.654,N,00449.022,W,55.62,160.61,190114,,*24
$GPGGA,165121.000,4142.654,N,00449.022,W,1,00,0.0,844.106,M,0.0,M,,*7C
$GPVTG,160.610,T,0,M,55.616,N,103.000,K*63
$GPGSA,A,3,,,,,,,,,,,,,0.0,0.0,0.0*32
$GPRMC,165122.000,A,4142.640,N,00449.014,W,55.62,158.94,190114,,*26
$GPGGA,165122.000,4142.640,N,00449.014,W,1,00,0.0,842.959,M,0.0,M,,*7B
$GPVTG,158.936,T,0,M,55.616,N,103.000,K*63
$GPGSA,A,3,,,,,,,,,,,,,0.0,0.0,0.0*32
$GPRMC,165123.000,A,4142.625,N,00449.008,W,55.62,160.61,190114,,*28
$GPGGA,165123.000,4142.625,N,00449.008,W,1,00,0.0,843.284,M,0.0,M,,*7E
$GPVTG,160.610,T,0,M,55.616,N,103.000,K*63
$GPGSA,A,3,,,,,,,,,,,,,0.0,0.0,0.0*32
$GPRMC,165124.000,A,4142.610,N,00449.001,W,55.62,160.61,190114,,*20
$GPGGA,165124.000,4142.610,N,00449.001,W,1,00,0.0,843.609,M,0.0,M,,*77
$GPVTG,160.610,T,0,M,55.616,N,103.000,K*63
$GPGSA,A,3,,,,,,,,,,,,,0.0,0.0,0.0*32
$GPRMC,165125.000,A,4142.596,N,00448.994,W,55.62,160.82,190114,,*25
$GPGGA,165125.000,4142.596,N,00448.994,W,1,00,0.0,842.524,M,0.0,M,,*72
$GPVTG,160.822,T,0,M,55.616,N,103.000,K*6C
$GPGSA,A,3,,,,,,,,,,,,,0.0,0.0,0.0*32
$GPRMC,165126.000,A,4142.581,N,00448.988,W,55.62,162.53,190114,,*23
$GPGGA,165126.000,4142.581,N,00448.988,W,1,00,0.0,842.912,M,0.0,M,,*73
$GPVTG,162.534,T,0,M,55.616,N,103.000,K*64
$GPGSA,A,3,,,,,,,,,,,,,0.0,0.0,0.0*32
$GPRMC,165127.000,A,4142.566,N,00448.981,W,55.62,161.09,190114,,*2E
$GPGGA,165127.000,4142.566,N,00448.981,W,1,00,0.0,842.572,M,0.0,M,,*78
$GPVTG,161.093,T,0,M,55.616,N,103.000,K*6F
$GPGSA,A,3,,,,,,,,,,,,,0.0,0.0,0.0*32
$GPRMC,165128.000,A,4142.551,N,00448.975,W,56.16,162.53,190114,,*22
$GPGGA,165128.000,4142.551,N,00448.975,W,1,00,0.0,842.961,M,0.0,M,,*76
$GPVTG,162.534,T,0,M,56.156,N,104.000,K*63
$GPGSA,A,3,,,,,,,,,,,,,0.0,0.0,0.0*32
$GPRMC,165129.000,A,4142.536,N,00448.969,W,56.16,164.89,190114,,*2E
$GPGGA,165129.000,4142.536,N,00448.969,W,1,00,0.0,842.746,M,0.0,M,,*70
$GPVTG,164.886,T,0,M,56.156,N,104.000,K*61
$GPGSA,A,3,,,,,,,,,,,,,0.0,0.0,0.0*32
$GPRMC,165130.000,A,4142.521,N,00448.963,W,56.16,162.97,190114,,*23
$GPGGA,165130.000,4142.521,N,00448.963,W,1,00,0.0,842.469,M,0.0,M,,*7A
$GPVTG,162.974,T,0,M,56.156,N,104.000,K*6B
$GPGSA,A,3,,,,,,,,,,,,,0.0,0.0,0.0*32
$GPRMC,165131.000,A,4142.506,N,00448.957,W,56.16,164.89,190114,,*29
$GPGGA,165131.000,4142.506,N,00448.957,W,1,00,0.0,842.255,M,0.0,M,,*70
$GPVTG,164.886,T,0,M,56.156,N,104.000,K*61
$GPGSA,A,3,,,,,,,,,,,,,0.0,0.0,0.0*32
$GPRMC,165132.000,A,4142.491,N,00448.952,W,56.16,164.89,190114,,*20
$GPGGA,165132.000,4142.491,N,00448.952,W,1,00,0.0,842.041,M,0.0,M,,*7E
$GPVTG,164.886,T,0,M,56.156,N,104.000,K*61
$GPGSA,A,3,,,,,,,,,,,,,0.0,0.0,0.0*32
$GPRMC,165133.000,A,4142.476,N,00448.946,W,56.16,165.06,190114,,*2B
$GPGGA,165133.000,4142.476,N,00448.946,W,1,00,0.0,842.571,M,0.0,M,,*75
$GPVTG,165.065,T,0,M,56.156,N,104.000,K*65
$GPGSA,A,3,,,,,,,,,,,,,0.0,0.0,0.0*32
$GPRMC,165134.000,A,4142.460,N,00448.942,W,56.16,166.83,190114,,*21
$GPGGA,165134.000,4142.460,N,00448.942,W,1,00,0.0,842.420,M,0.0,M,,*74
$GPVTG,166.826,T,0,M,56.156,N,104.000,K*69
$GPGSA,A,3,,,,,,,,,,,,,0.0,0.0,0.0*32
$GPRMC,165135.000,A,4142.445,N,00448.937,W,56.16,166.83,190114,,*25
$GPGGA,165135.000,4142.445,N,00448.937,W,1,00,0.0,842.270,M,0.0,M,,*73
$GPVTG,166.826,T,0,M,56.156,N,104.000,K*69
$GPGSA,A,3,,,,,,,,,,,,,0.0,0.0,0.0*32
$GPRMC,165136.000,A,4142.430,N,00448.932,W,56.16,166.83,190114,,*21
$GPGGA,165136.000,4142.430,N,00448.932,W,1,00,0.0,842.119,M,0.0,M,,*7B
$GPVTG,166.826,T,0,M,56.156,N,104.000,K*69
$GPGSA,A,3,,,,,,,,,,,,,0.0,0.0,0.0*32
$GPRMC,165137.000,A,4142.415,N,00448.927,W,56.16,166.96,190114,,*27
$GPGGA,165137.000,4142.415,N,00448.927,W,1,00,0.0,842.712,M,0.0,M,,*74
$GPVTG,166.962,T,0,M,56.156,N,104.000,K*68
$GPGSA,A,3,,,,,,,,,,,,,0.0,0.0,0.0*32
$GPRMC,165138.000,A,4142.399,N,00448.923,W,56.16,169.07,190114,,*28
$GPGGA,165138.000,4142.399,N,00448.923,W,1,00,0.0,841.959,M,0.0,M,,*7E
$GPVTG,169.072,T,0,M,56.156,N,104.000,K*6F
$GPGSA,A,3,,,,,,,,,,,,,0.0,0.0,0.0*32
$GPRMC,165139.000,A,4142.384,N,00448.919,W,56.16,168.79,190114,,*24
$GPGGA,165139.000,4142.384,N,00448.919,W,1,00,0.0,841.871,M,0.0,M,,*71
$GPVTG,168.789,T,0,M,56.156,N,104.000,K*6D
$GPGSA,A,3,,,,,,,,,,,,,0.0,0.0,0.0*32
$GPRMC,165140.000,A,4142.369,N,00448.915,W,56.16,168.88,190114,,*2B
$GPGGA,165140.000,4142.369,N,00448.915,W,1,00,0.0,842.528,M,0.0,M,,*72
$GPVTG,168.880,T,0,M,56.156,N,104.000,K*6B
$GPGSA,A,3,,,,,,,,,,,,,0.0,0.0,0.0*32
$GPRMC,165141.000,A,4142.353,N,00448.911,W,56.70,169.07,190114,,*21
$GPGGA,165141.000,4142.353,N,00448.911,W,1,00,0.0,841.775,M,0.0,M,,*77
$GPVTG,169.072,T,0,M,56.695,N,105.000,K*66
$GPGSA,A,3,,,,,,,,,,,,,0.0,0.0,0.0*32
$GPRMC,165142.000,A,4142.337,N,00448.908,W,56.70,170.82,190114,,*2D
$GPGGA,165142.000,4142.337,N,00448.908,W,1,00,0.0,842.494,M,0.0,M,,*71
$GPVTG,170.817,T,0,M,56.695,N,105.000,K*65
$GPGSA,A,3,,,,,,,,,,,,,0.0,0.0,0.0*32
$GPRMC,165143.000,A,4142.322,N,00448.905,W,56.70,171.01,190114,,*2F
$GPGGA,165143.000,4142.322,N,00448.905,W,1,00,0.0,841.804,M,0.0,M,,*7F
$GPVTG,171.005,T,0,M,56.695,N,105.000,K*6F
$GPGSA,A,3,,,,,,,,,,,,,0.0,0.0,0.0*32
$GPRMC,165144.000,A,4142.306,N,00448.901,W,56.70,171.05,190114,,*2E
$GPGGA,165144.000,4142.306,N,00448.901,W,1,00,0.0,841.859,M,0.0,M,,*72
$GPVTG,171.046,T,0,M,56.695,N,105.000,K*68
$GPGSA,A,3,,,,,,,,,,,,,0.0,0.0,0.0*32
$GPRMC,165145.000,A,4142.291,N,00448.898,W,56.70,170.77,190114,,*25
$GPGGA,165145.000,4142.291,N,00448.898,W,1,00,0.0,841.835,M,0.0,M,,*77
$GPVTG,170.771,T,0,M,56.695,N,105.000,K*6A
$GPGSA,A,3,,,,,,,,,,,,,0.0,0.0,0.0*32
$GPRMC,165146.000,A,4142.275,N,00448.895,W,56.70,172.95,190114,,*2F
$GPGGA,165146.000,4142.275,N,00448.895,W,1,00,0.0,841.952,M,0.0,M,,*73
$GPVTG,172.949,T,0,M,56.695,N,105.000,K*6D
$GPGSA,A,3,,,,,,,,,,,,,0.0,0.0,0.0*32
$GPRMC,165147.000,A,4142.259,N,00448.893,W,56.70,172.95,190114,,*26
$GPGGA,165147.000,4142.259,N,00448.893,W,1,00,0.0,841.325,M,0.0,M,,*70
$GPVTG,172.952,T,0,M,56.695,N,105.000,K*67
$GPGSA,A,3,,,,,,,,,,,,,0.0,0.0,0.0*32
$GPRMC,165148.000,A,4142.244,N,00448.890,W,56.70,172.77,190114,,*2A
$GPGGA,165148.000,4142.244,N,00448.890,W,1,00,0.0,842.108,M,0.0,M,,*7E
$GPVTG,172.768,T,0,M,56.695,N,105.000,K*60
$GPGSA,A,3,,,,,,,,,,,,,0.0,0.0,0.0*32
$GPRMC,165149.000,A,4142.228,N,00448.888,W,56.70,174.91,190114,,*26
$GPGGA,165149.000,4142.228,N,00448.888,W,1,00,0.0,841.544,M,0.0,M,,*73
$GPVTG,174.907,T,0,M,56.695,N,105.000,K*61
$GPGSA,A,3,,,,,,,,,,,,,0.0,0.0,0.0*32
$GPRMC,165150.000,A,4142.212,N,00448.886,W,56.70,174.86,190114,,*2F
$GPGGA,165150.000,4142.212,N,00448.886,W,1,00,0.0,841.725,M,0.0,M,,*79
$GPVTG,174.860,T,0,M,56.695,N,105.000,K*61
$GPGSA,A,3,,,,,,,,,,,,,0.0,0.0,0.0*32
$GPRMC,165151.000,A,4142.197,N,00448.884,W,56.16,174.77,190114,,*2C
$GPGGA,165151.000,4142.197,N,00448.884,W,1,00,0.0,841.827,M,0.0,M,,*79
$GPVTG,174.773,T,0,M,56.156,N,104.000,K*65
$GPGSA,A,3,,,,,,,,,,,,,0.0,0.0,0.0*32
$GPRMC,165152.000,A,4142.181,N,00448.883,W,56.16,174.86,190114,,*21
$GPGGA,165152.000,4142.181,N,00448.883,W,1,00,0.0,842.007,M,0.0,M,,*73
$GPVTG,174.860,T,0,M,56.156,N,104.000,K*68
$GPGSA,A,3,,,,,,,,,,,,,0.0,0.0,0.0*32
$GPRMC,165153.000,A,4142.165,N,00448.881,W,56.16,174.77,190114,,*26
$GPGGA,165153.000,4142.165,N,00448.881,W,1,00,0.0,842.109,M,0.0,M,,*75
$GPVTG,174.773,T,0,M,56.156,N,104.000,K*65
$GPGSA,A,3,,,,,,,,,,,,,0.0,0.0,0.0*32
$GPRMC,165154.000,A,4142.149,N,00448.879,W,56.16,176.78,190114,,*25
$GPGGA,165154.000,4142.149,N,00448.879,W,1,00,0.0,842.353,M,0.0,M,,*76
$GPVTG,176.775,T,0,M,56.156,N,104.000,K*61
$GPGSA,A,3,,,,,,,,,,,,,0.0,0.0,0.0*32
$GPRMC,165155.000,A,4142.134,N,00448.878,W,56.16,176.78,190114,,*2F
$GPGGA,165155.000,4142.134,N,00448.878,W,1,00,0.0,842.518,M,0.0,M,,*75
$GPVTG,176.784,T,0,M,56.156,N,104.000,K*6F
$GPGSA,A,3,,,,,,,,,,,,,0.0,0.0,0.0*32
$GPRMC,165156.000,A,4142.118,N,00448.878,W,55.62,178.69,190114,,*2C
$GPGGA,165156.000,4142.118,N,00448.878,W,1,00,0.0,842.825,M,0.0,M,,*7B
$GPVTG,178.691,T,0,M,55.616,N,103.000,K*63
$GPGSA,A,3,,,,,,,,,,,,,0.0,0.0,0.0*32
$GPRMC,165157.000,A,4142.103,N,00448.877,W,55.62,176.78,190114,,*26
$GPGGA,165157.000,4142.103,N,00448.877,W,1,00,0.0,842.990,M,0.0,M,,*70
$GPVTG,176.784,T,0,M,55.616,N,103.000,K*68
$GPGSA,A,3,,,,,,,,,,,,,0.0,0.0,0.0*32
$GPRMC,165158.000,A,4142.087,N,00448.876,W,55.62,178.83,190114,,*2F
$GPGGA,165158.000,4142.087,N,00448.876,W,1,00,0.0,842.553,M,0.0,M,,*70
$GPVTG,178.826,T,0,M,55.616,N,103.000,K*61
$GPGSA,A,3,,,,,,,,,,,,,0.0,0.0,0.0*32
$GPRMC,165159.000,A,4142.072,N,00448.876,W,55.62,178.79,190114,,*21
$GPGGA,165159.000,4142.072,N,00448.876,W,1,00,0.0,842.781,M,0.0,M,,*76
$GPVTG,178.795,T,0,M,55.616,N,103.000,K*66
$GPGSA,A,3,,,,,,,,,,,,,0.0,0.0,0.0*32
$GPRMC,165200.000,A,4142.056,N,00448.876,W,55.62,180.62,190114,,*25
$GPGGA,165200.000,4142.056,N,00448.876,W,1,00,0.0,843.816,M,0.0,M,,*7F
$GPVTG,180.618,T,0,M,55.616,N,103.000,K*65
$GPGSA,A,3,,,,,,,,,,,,,0.0,0.0,0.0*32
$GPRMC,165201.000,A,4142.040,N,00448.876,W,55.08,178.83,190114,,*27
$GPGGA,165201.000,4142.040,N,00448.876,W,1,00,0.0,843.379,M,0.0,M,,*7B
$GPVTG,178.826,T,0,M,55.076,N,102.000,K*60
$GPGSA,A,3,,,,,,,,,,,,,0.0,0.0,0.0*32
$GPRMC,165202.000,A,4142.025,N,00448.875,W,55.08,178.79,190114,,*21
$GPGGA,165202.000,4142.025,N,00448.875,W,1,00,0.0,843.608,M,0.0,M,,*7B
$GPVTG,178.795,T,0,M,55.076,N,102.000,K*67
$GPGSA,A,3,,,,,,,,,,,,,0.0,0.0,0.0*32
$GPRMC,165203.000,A,4142.010,N,00448.875,W,55.08,180.80,190114,,*27
$GPGGA,165203.000,4142.010,N,00448.875,W,1,00,0.0,843.900,M,0.0,M,,*7B
$GPVTG,180.801,T,0,M,55.076,N,102.000,K*62
$GPGSA,A,3,,,,,,,,,,,,,0.0,0.0,0.0*32
$GPRMC,165204.000,A,4141.994,N,00448.875,W,55.08,178.79,190114,,*27
$GPGGA,165204.000,4141.994,N,00448.875,W,1,00,0.0,844.128,M,0.0,M,,*7F
$GPVTG,178.795,T,0,M,55.076,N,102.000,K*67
$GPGSA,A,3,,,,,,,,,,,,,0.0,0.0,0.0*32
$GPRMC,165205.000,A,4141.979,N,00448.875,W,55.08,180.78,190114,,*23
$GPGGA,165205.000,4141.979,N,00448.875,W,1,00,0.0,843.755,M,0.0,M,,*76
$GPVTG,180.780,T,0,M,55.076,N,102.000,K*64
$GPGSA,A,3,,,,,,,,,,,,,0.0,0.0,0.0*32
$GPRMC,165206.000,A,4141.963,N,00448.875,W,55.08,178.79,190114,,*2D
$GPGGA,165206.000,4141.963,N,00448.875,W,1,00,0.0,843.984,M,0.0,M,,*7C
$GPVTG,178.795,T,0,M,55.076,N,102.000,K*67
$GPGSA,A,3,,,,,,,,,,,,,0.0,0.0,0.0*32
$GPRMC,165207.000,A,4141.948,N,00448.875,W,55.08,180.80,190114,,*24
$GPGGA,165207.000,4141.948,N,00448.875,W,1,00,0.0,844.276,M,0.0,M,,*75
$GPVTG,180.801,T,0,M,55.076,N,102.000,K*62
$GPGSA,A,3,,,,,,,,,,,,,0.0,0.0,0.0*32
$GPRMC,165208.000,A,4141.933,N,00448.875,W,55.08,178.79,190114,,*26
$GPGGA,165208.000,4141.933,N,00448.875,W,1,00,0.0,844.505,M,0.0,M,,*75
$GPVTG,178.795,T,0,M,55.076,N,102.000,K*67
$GPGSA,A,3,,,,,,,,,,,,,0.0,0.0,0.0*32
$GPRMC,165209.000,A,4141.917,N,00448.875,W,55.08,180.80,190114,,*20
$GPGGA,165209.000,4141.917,N,00448.875,W,1,00,0.0,844.798,M,0.0,M,,*74
$GPVTG,180.801,T,0,M,55.076,N,102.000,K*62
$GPGSA,A,3,,,,,,,,,,,,,0.0,0.0,0.0*32
$GPRMC,165210.000,A,4141.902,N,00448.875,W,55.08,178.79,190114,,*2D
$GPGGA,165210.000,4141.902,N,00448.875,W,1,00,0.0,845.027,M,0.0,M,,*7A
$GPVTG,178.795,T,0,M,55.076,N,102.000,K*67
$GPGSA,A,3,,,,,,,,,,,,,0.0,0.0,0.0*32
$GPRMC,165211.000,A,4141.887,N,00448.875,W,55.08,180.80,190114,,*21
$GPGGA,165211.000,4141.887,N,00448.875,W,1,00,0.0,845.320,M,0.0,M,,*73
$GPVTG,180.801,T,0,M,55.076,N,102.000,K*62
$GPGSA,A,3,,,,,,,,,,,,,0.0,0.0,0.0*32
$GPRMC,165212.000,A,4141.871,N,00448.874,W,55.08,178.79,190114,,*2B
$GPGGA,165212.000,4141.871,N,00448.874,W,1,00,0.0,845.549,M,0.0,M,,*71
$GPVTG,178.795,T,0,M,55.076,N,102.000,K*67
$GPGSA,A,3,,,,,,,,,,,,,0.0,0.0,0.0*32
$GPRMC,165213.000,A,4141.856,N,00448.875,W,55.08,180.80,190114,,*2F
$GPGGA,165213.000,4141.856,N,00448.875,W,1,00,0.0,845.842,M,0.0,M,,*72
$GPVTG,180.801,T,0,M,55.076,N,102.000,K*62
$GPGSA,A,3,,,,,,,,,,,,,0.0,0.0,0.0*32
$GPRMC,165214.000,A,4141.840,N,00448.874,W,55.08,178.83,190114,,*2A
$GPGGA,165214.000,4141.840,N,00448.874,W,1,00,0.0,845.407,M,0.0,M,,*7E
$GPVTG,178.826,T,0,M,55.076,N,102.000,K*60
$GPGSA,A,3,,,,,,,,,,,,,0.0,0.0,0.0*32
$GPRMC,165215.000,A,4141.825,N,00448.875,W,55.08,180.80,190114,,*2D
$GPGGA,165215.000,4141.825,N,00448.875,W,1,00,0.0,845.700,M,0.0,M,,*79
$GPVTG,180.801,T,0,M,55.076,N,102.000,K*62
$GPGSA,A,3,,,,,,,,,,,,,0.0,0.0,0.0*32
$GPRMC,165216.000,A,4141.810,N,00448.874,W,55.08,178.94,190114,,*2B
$GPGGA,165216.000,4141.810,N,00448.874,W,1,00,0.0,845.186,M,0.0,M,,*75
$GPVTG,178.939,T,0,M,55.076,N,102.000,K*6F
$GPGSA,A,3,,,,,,,,,,,,,0.0,0.0,0.0*32
$GPRMC,165217.000,A,4141.795,N,00448.874,W,55.08,180.80,190114,,*2A
$GPGGA,165217.000,4141.795,N,00448.874,W,1,00,0.0,845.480,M,0.0,M,,*75
$GPVTG,180.801,T,0,M,55.076,N,102.000,K*62
$GPGSA,A,3,,,,,,,,,,,,,0.0,0.0,0.0*32
$GPRMC,165218.000,A,4141.779,N,00448.875,W,55.08,180.78,190114,,*21
$GPGGA,165218.000,4141.779,N,00448.875,W,1,00,0.0,845.108,M,0.0,M,,*7C
$GPVTG,180.780,T,0,M,55.076,N,102.000,K*64
$GPGSA,A,3,,,,,,,,,,,,,0.0,0.0,0.0*32
$GPRMC,165219.000,A,4141.764,N,00448.874,W,55.62,178.79,190114,,*27
$GPGGA,165219.000,4141.764,N,00448.874,W,1,00,0.0,845.339,M,0.0,M,,*70
$GPVTG,178.795,T,0,M,55.616,N,103.000,K*66
$GPGSA,A,3,,,,,,,,,,,,,0.0,0.0,0.0*32
$GPRMC,165220.000,A,4141.748,N,00448.875,W,55.62,180.78,190114,,*24
$GPGGA,165220.000,4141.748,N,00448.875,W,1,00,0.0,844.967,M,0.0,M,,*75
$GPVTG,180.780,T,0,M,55.616,N,103.000,K*65
$GPGSA,A,3,,,,,,,,,,,,,0.0,0.0,0.0*32
$GPRMC,165221.000,A,4141.733,N,00448.874,W,55.62,178.79,190114,,*2E
$GPGGA,165221.000,4141.733,N,00448.874,W,1,00,0.0,845.198,M,0.0,M,,*70
$GPVTG,178.795,T,0,M,55.616,N,103.000,K*66
$GPGSA,A,3,,,,,,,,,,,,,0.0,0.0,0.0*32
$GPRMC,165222.000,A,4141.717,N,00448.874,W,55.62,180.78,190114,,*2D
$GPGGA,165222.000,4141.717,N,00448.874,W,1,00,0.0,844.827,M,0.0,M,,*79
$GPVTG,180.780,T,0,M,55.616,N,103.000,K*65
$GPGSA,A,3,,,,,,,,,,,,,0.0,0.0,0.0*32
$GPRMC,165223.000,A,4141.702,N,00448.875,W,55.62,180.80,190114,,*2E
$GPGGA,165223.000,4141.702,N,00448.875,W,1,00,0.0,845.121,M,0.0,M,,*73
$GPVTG,180.801,T,0,M,55.616,N,103.000,K*63
$GPGSA,A,3,,,,,,,,,,,,,0.0,0.0,0.0*32
$GPRMC,165224.000,A,4141.686,N,00448.874,W,55.62,178.83,190114,,*21
$GPGGA,165224.000,4141.686,N,00448.874,W,1,00,0.0,844.687,M,0.0,M,,*72
$GPVTG,178.826,T,0,M,55.616,N,103.000,K*61
$GPGSA,A,3,,,,,,,,,,,,,0.0,0.0,0.0*32
$GPRMC,165225.000,A,4141.671,N,00448.875,W,55.62,180.80,190114,,*2D
$GPGGA,165225.000,4141.671,N,00448.875,W,1,00,0.0,844.981,M,0.0,M,,*73
$GPVTG,180.801,T,0,M,55.616,N,103.000,K*63
$GPGSA,A,3,,,,,,,,,,,,,0.0,0.0,0.0*32
$GPRMC,165226.000,A,4141.655,N,00448.874,W,55.62,178.83,190114,,*2D
$GPGGA,165226.000,4141.655,N,00448.874,W,1,00,0.0,844.548,M,0.0,M,,*7E
$GPVTG,178.826,T,0,M,55.616,N,103.000,K*61
$GPGSA,A,3,,,,,,,,,,,,,0.0,0.0,0.0*32
$GPRMC,165227.000,A,4141.640,N,00448.874,W,55.62,180.80,190114,,*2C
$GPGGA,165227.000,4141.640,N,00448.874,W,1,00,0.0,844.842,M,0.0,M,,*7C
$GPVTG,180.801,T,0,M,55.616,N,103.000,K*63
$GPGSA,A,3,,,,,,,,,,,,,0.0,0.0,0.0*32
$GPRMC,165228.000,A,4141.624,N,00448.874,W,55.62,178.79,190114,,*20
$GPGGA,165228.000,4141.624,N,00448.874,W,1,00,0.0,845.074,M,0.0,M,,*7D
$GPVTG,178.795,T,0,M,55.616,N,103.000,K*66
$GPGSA,A,3,,,,,,,,,,,,,0.0,0.0,0.0*32
$GPRMC,165229.000,A,4141.609,N,00448.874,W,55.62,180.78,190114,,*28
$GPGGA,165229.000,4141.609,N,00448.874,W,1,00,0.0,844.704,M,0.0,M,,*72
$GPVTG,180.780,T,0,M,55.616,N,103.000,K*65
$GPGSA,A,3,,,,,,,,,,,,,0.0,0.0,0.0*32
$GPRMC,165230.000,A,4141.593,N,00448.874,W,55.62,178.79,190114,,*26
$GPGGA,165230.000,4141.593,N,00448.874,W,1,00,0.0,844.936,M,0.0,M,,*75
$GPVTG,178.795,T,0,M,55.616,N,103.000,K*66
$GPGSA,A,3,,,,,,,,,,,,,0.0,0.0,0.0*32
$GPRMC,165231.000,A,4141.578,N,00448.873,W,55.62,178.83,190114,,*20
$GPGGA,165231.000,4141.578,N,00448.873,W,1,00,0.0,844.503,M,0.0,M,,*7C
$GPVTG,178.826,T,0,M,55.616,N,103.000,K*61
$GPGSA,A,3,,,,,,,,,,,,,0.0,0.0,0.0*32
$GPRMC,165232.000,A,4141.562,N,00448.874,W,55.62,180.80,190114,,*2B
$GPGGA,165232.000,4141.562,N,00448.874,W,1,00,0.0,844.798,M,0.0,M,,*73
$GPVTG,180.801,T,0,M,55.616,N,103.000,K*63
$GPGSA,A,3,,,,,,,,,,,,,0.0,0.0,0.0*32
$GPRMC,165233.000,A,4141.547,N,00448.873,W,55.62,178.83,190114,,*2E
$GPGGA,165233.000,4141.547,N,00448.873,W,1,00,0.0,844.366,M,0.0,M,,*77
$GPVTG,178.826,T,0,M,55.616,N,103.000,K*61
$GPGSA,A,3,,,,,,,,,,,,,0.0,0.0,0.0*32
$GPRMC,165234.000,A,4141.531,N,00448.874,W,55.62,180.80,190114,,*2B
$GPGGA,165234.000,4141.531,N,00448.874,W,1,00,0.0,844.661,M,0.0,M,,*74
$GPVTG,180.801,T,0,M,55.616,N,103.000,K*63
$GPGSA,A,3,,,,,,,,,,,,,0.0,0.0,0.0*32
$GPRMC,165235.000,A,4141.515,N,00448.873,W,55.62,178.83,190114,,*2F
$GPGGA,165235.000,4141.515,N,00448.873,W,1,00,0.0,844.229,M,0.0,M,,*7C
$GPVTG,178.826,T,0,M,55.616,N,103.000,K*61
$GPGSA,A,3,,,,,,,,,,,,,0.0,0.0,0.0*32
$GPRMC,165236.000,A,4141.500,N,00448.873,W,55.62,180.62,190114,,*20
$GPGGA,165236.000,4141.500,N,00448.873,W,1,00,0.0,845.268,M,0.0,M,,*7F
$GPVTG,180.618,T,0,M,55.616,N,103.000,K*65
$GPGSA,A,3,,,,,,,,,,,,,0.0,0.0,0.0*32
$GPRMC,165237.000,A,4141.485,N,00448.873,W,55.62,178.79,190114,,*20
$GPGGA,165237.000,4141.485,N,00448.873,W,1,00,0.0,845.501,M,0.0,M,,*7A
$GPVTG,178.795,T,0,M,55.616,N,103.000,K*66
$GPGSA,A,3,,,,,,,,,,,,,0.0,0.0,0.0*32
$GPRMC,165238.000,A,4141.469,N,00448.873,W,55.62,178.83,190114,,*28
$GPGGA,165238.000,4141.469,N,00448.873,W,1,00,0.0,845.070,M,0.0,M,,*74
$GPVTG,178.826,T,0,M,55.616,N,103.000,K*61
$GPGSA,A,3,,,,,,,,,,,,,0.0,0.0,0.0*32
$GPRMC,165240.000,A,4141.437,N,00448.870,W,56.16,176.78,190114,,*25
$GPGGA,165240.000,4141.437,N,00448.870,W,1,00,0.0,845.490,M,0.0,M,,*79
$GPVTG,176.780,T,0,M,56.156,N,104.000,K*6B
$GPGSA,A,3,,,,,,,,,,,,,0.0,0.0,0.0*32
$GPRMC,165241.000,A,4141.422,N,00448.869,W,56.16,176.78,190114,,*28
$GPGGA,165241.000,4141.422,N,00448.869,W,1,00,0.0,845.661,M,0.0,M,,*78
$GPVTG,176.784,T,0,M,56.156,N,104.000,K*6F
$GPGSA,A,3,,,,,,,,,,,,,0.0,0.0,0.0*32
$GPRMC,165243.000,A,4141.391,N,00448.865,W,56.16,174.82,190114,,*2E
$GPGGA,165243.000,4141.391,N,00448.865,W,1,00,0.0,845.957,M,0.0,M,,*73
$GPVTG,174.818,T,0,M,56.156,N,104.000,K*67
$GPGSA,A,3,,,,,,,,,,,,,0.0,0.0,0.0*32
$GPRMC,165244.000,A,4141.375,N,00448.863,W,56.16,174.91,190114,,*27
$GPGGA,165244.000,4141.375,N,00448.863,W,1,00,0.0,845.400,M,0.0,M,,*77
$GPVTG,174.907,T,0,M,56.156,N,104.000,K*68
$GPGSA,A,3,,,,,,,,,,,,,0.0,0.0,0.0*32
$GPRMC,165245.000,A,4141.359,N,00448.861,W,56.70,172.95,190114,,*28
$GPGGA,165245.000,4141.359,N,00448.861,W,1,00,0.0,845.525,M,0.0,M,,*7C
$GPVTG,172.949,T,0,M,56.695,N,105.000,K*6D
$GPGSA,A,3,,,,,,,,,,,,,0.0,0.0,0.0*32
$GPRMC,165246.000,A,4141.344,N,00448.857,W,56.70,170.77,190114,,*2C
$GPGGA,165246.000,4141.344,N,00448.857,W,1,00,0.0,845.509,M,0.0,M,,*78
$GPVTG,170.771,T,0,M,56.695,N,105.000,K*6A
$GPGSA,A,3,,,,,,,,,,,,,0.0,0.0,0.0*32
$GPRMC,165247.000,A,4141.328,N,00448.854,W,56.70,171.05,190114,,*20
$GPGGA,165247.000,4141.328,N,00448.854,W,1,00,0.0,845.572,M,0.0,M,,*7C
$GPVTG,171.046,T,0,M,56.695,N,105.000,K*68
$GPGSA,A,3,,,,,,,,,,,,,0.0,0.0,0.0*32
$GPRMC,165248.000,A,4141.313,N,00448.851,W,56.70,170.77,190114,,*26
$GPGGA,165248.000,4141.313,N,00448.851,W,1,00,0.0,845.556,M,0.0,M,,*78
$GPVTG,170.771,T,0,M,56.695,N,105.000,K*6A
$GPGSA,A,3,,,,,,,,,,,,,0.0,0.0,0.0*32
$GPRMC,165249.000,A,4141.297,N,00448.847,W,56.70,169.16,190114,,*22
$GPGGA,165249.000,4141.297,N,00448.847,W,1,00,0.0,845.556,M,0.0,M,,*73
$GPVTG,169.156,T,0,M,56.695,N,105.000,K*61
$GPGSA,A,3,,,,,,,,,,,,,0.0,0.0,0.0*32
$GPRMC,165250.000,A,4141.282,N,00448.842,W,56.70,166.83,190114,,*28
$GPGGA,165250.000,4141.282,N,00448.842,W,1,00,0.0,845.415,M,0.0,M,,*7C
$GPVTG,166.827,T,0,M,56.695,N,105.000,K*61
$GPGSA,A,3,,,,,,,,,,,,,0.0,0.0,0.0*32
$GPRMC,165251.000,A,4141.266,N,00448.838,W,56.70,169.16,190114,,*2D
$GPGGA,165251.000,4141.266,N,00448.838,W,1,00,0.0,845.415,M,0.0,M,,*7A
$GPVTG,169.156,T,0,M,56.695,N,105.000,K*61
$GPGSA,A,3,,,,,,,,,,,,,0.0,0.0,0.0*32
$GPRMC,165252.000,A,4141.251,N,00448.833,W,57.24,166.96,190114,,*26
$GPGGA,165252.000,4141.251,N,00448.833,W,1,00,0.0,846.018,M,0.0,M,,*7C
$GPVTG,166.963,T,0,M,57.235,N,106.000,K*6C
$GPGSA,A,3,,,,,,,,,,,,,0.0,0.0,0.0*32
$GPRMC,165253.000,A,4141.235,N,00448.828,W,57.24,165.26,190114,,*27
$GPGGA,165253.000,4141.235,N,00448.828,W,1,00,0.0,845.150,M,0.0,M,,*7B
$GPVTG,165.264,T,0,M,57.235,N,106.000,K*63
$GPGSA,A,3,,,,,,,,,,,,,0.0,0.0,0.0*32
$GPRMC,165254.000,A,4141.220,N,00448.822,W,57.24,165.07,190114,,*2D
$GPGGA,165254.000,4141.220,N,00448.822,W,1,00,0.0,845.691,M,0.0,M,,*78
$GPVTG,165.066,T,0,M,57.235,N,106.000,K*63
$GPGSA,A,3,,,,,,,,,,,,,0.0,0.0,0.0*32
$GPRMC,165255.000,A,4141.204,N,00448.817,W,57.24,165.07,190114,,*2C
$GPGGA,165255.000,4141.204,N,00448.817,W,1,00,0.0,846.231,M,0.0,M,,*74
$GPVTG,165.066,T,0,M,57.235,N,106.000,K*63
$GPGSA,A,3,,,,,,,,,,,,,0.0,0.0,0.0*32
$GPRMC,165256.000,A,4141.189,N,00448.810,W,57.24,162.98,190114,,*2F
$GPGGA,165256.000,4141.189,N,00448.810,W,1,00,0.0,845.966,M,0.0,M,,*7C
$GPVTG,162.976,T,0,M,57.235,N,106.000,K*6C
$GPGSA,A,3,,,,,,,,,,,,,0.0,0.0,0.0*32
$GPRMC,165257.000,A,4141.174,N,00448.804,W,57.24,163.20,190114,,*2B
$GPGGA,165257.000,4141.174,N,00448.804,W,1,00,0.0,846.444,M,0.0,M,,*74
$GPVTG,163.195,T,0,M,57.235,N,106.000,K*68
$GPGSA,A,3,,,,,,,,,,,,,0.0,0.0,0.0*32
$GPRMC,165258.000,A,4141.159,N,00448.797,W,57.24,161.09,190114,,*27
$GPGGA,165258.000,4141.159,N,00448.797,W,1,00,0.0,846.116,M,0.0,M,,*73
$GPVTG,161.095,T,0,M,57.235,N,106.000,K*6B
$GPGSA,A,3,,,,,,,,,,,,,0.0,0.0,0.0*32
$GPRMC,165259.000,A,4141.143,N,00448.790,W,57.78,161.56,190114,,*29
$GPGGA,165259.000,4141.143,N,00448.790,W,1,00,0.0,845.123,M,0.0,M,,*7B
$GPVTG,161.555,T,0,M,57.775,N,107.000,K*62
$GPGSA,A,3,,,,,,,,,,,,,0.0,0.0,0.0*32
$GPRMC,165300.000,A,4141.128,N,00448.783,W,57.78,161.35,190114,,*2E
$GPGGA,165300.000,4141.128,N,00448.783,W,1,00,0.0,845.539,M,0.0,M,,*76
$GPVTG,161.354,T,0,M,57.775,N,107.000,K*65
$GPGSA,A,3,,,,,,,,,,,,,0.0,0.0,0.0*32
$GPRMC,165301.000,A,4141.113,N,00448.776,W,57.78,159.25,190114,,*27
$GPGGA,165301.000,4141.113,N,00448.776,W,1,00,0.0,845.149,M,0.0,M,,*76
$GPVTG,159.248,T,0,M,57.775,N,107.000,K*62
$GPGSA,A,3,,,,,,,,,,,,,0.0,0.0,0.0*32
$GPRMC,165302.000,A,4141.098,N,00448.767,W,58.32,157.44,190114,,*2E
$GPGGA,165302.000,4141.098,N,00448.767,W,1,00,0.0,844.696,M,0.0,M,,*73
$GPVTG,157.438,T,0,M,58.315,N,108.000,K*6F
$GPGSA,A,3,,,,,,,,,,,,,0.0,0.0,0.0*32
$GPRMC,165303.000,A,4141.083,N,00448.759,W,58.32,157.44,190114,,*28
$GPGGA,165303.000,4141.083,N,00448.759,W,1,00,0.0,844.243,M,0.0,M,,*79
$GPVTG,157.438,T,0,M,58.315,N,108.000,K*6F
$GPGSA,A,3,,,,,,,,,,,,,0.0,0.0,0.0*32
$GPRMC,165304.000,A,4141.068,N,00448.751,W,58.32,157.77,190114,,*22
$GPGGA,165304.000,4141.068,N,00448.751,W,1,00,0.0,844.534,M,0.0,M,,*74
$GPVTG,157.769,T,0,M,58.315,N,108.000,K*68
$GPGSA,A,3,,,,,,,,,,,,,0.0,0.0,0.0*32
$GPRMC,165305.000,A,4141.053,N,00448.742,W,58.86,155.07,190114,,*23
$GPGGA,165305.000,4141.053,N,00448.742,W,1,00,0.0,844.684,M,0.0,M,,*77
$GPVTG,155.073,T,0,M,58.855,N,109.000,K*68
$GPGSA,A,3,,,,,,,,,,,,,0.0,0.0,0.0*32
$GPRMC,165306.000,A,4141.038,N,00448.732,W,58.86,153.94,190114,,*26
$GPGGA,165306.000,4141.038,N,00448.732,W,1,00,0.0,844.106,M,0.0,M,,*73
