$GPGGA,062245.000,4144.8112,N,00439.2373,W,1,08,1.0,710.1,M,51.6,M,,0000*41
$GPGSA,A,3,20,23,13,04,27,02,25,17,,,,,1.9,1.0,1.6*3F
$GPRMC,062245.000,A,4144.8112,N,00439.2373,W,58.33,234.73,300707,,,A*40
$GPGGA,062246.000,4144.8019,N,00439.2546,W,1,08,1.0,710.0,M,51.6,M,,0000*49
$GPGSA,A,3,20,23,13,04,27,02,25,17,,,,,1.9,1.0,1.6*3F
$GPRMC,062246.000,A,4144.8019,N,00439.2546,W,57.44,234.12,300707,,,A*41
$GPGGA,062247.000,4144.7927,N,00439.2716,W,1,08,1.0,709.8,M,51.6,M,,0000*44
$GPGSA,A,3,20,23,13,04,27,02,25,17,,,,,1.9,1.0,1.6*3F
$GPRMC,062247.000,A,4144.7927,N,00439.2716,W,56.37,233.96,300707,,,A*42
$GPGGA,062248.000,4144.7836,N,00439.2882,W,1,08,1.0,709.6,M,51.6,M,,0000*46
$GPGSA,A,3,20,23,13,04,27,02,25,17,,,,,1.9,1.0,1.6*3F
$GPRMC,062248.000,A,4144.7836,N,00439.2882,W,55.48,233.79,300707,,,A*44
$GPGGA,062249.000,4144.7747,N,00439.3046,W,1,08,1.0,709.5,M,51.6,M,,0000*4C
$GPGSA,A,3,20,23,13,04,27,02,25,17,,,,,1.9,1.0,1.6*3F
$GPGSV,3,1,09,13,84,190,32,23,61,051,35,04,58,302,39,20,32,080,28*72
$GPGSV,3,2,09,25,30,151,33,17,24,218,35,02,21,312,37,27,17,167,24*7D
$GPGSV,3,3,09,11,05,145,*45
$GPRMC,062249.000,A,4144.7747,N,00439.3046,W,54.41,234.28,300707,,,A*46
$GPGGA,062250.000,4144.7659,N,00439.3207,W,1,08,1.0,709.3,M,51.6,M,,0000*4B
$GPGSA,A,3,20,23,13,04,27,02,25,17,,,,,1.9,1.0,1.6*3F
$GPRMC,062250.000,A,4144.7659,N,00439.3207,W,53.66,234.14,300707,,,A*4A
$GPGGA,062251.000,4144.7574,N,00439.3366,W,1,08,1.0,709.1,M,51.6,M,,0000*42
$GPGSA,A,3,20,23,13,04,27,02,25,17,,,,,1.9,1.0,1.6*3F
$GPRMC,062251.000,A,4144.7574,N,00439.3366,W,52.76,234.26,300707,,,A*40
$GPGGA,062252.000,4144.7489,N,00439.3523,W,1,08,1.0,709.1,M,51.6,M,,0000*45
$GPGSA,A,3,20,23,13,04,27,02,25,17,,,,,1.9,1.0,1.6*3F
$GPRMC,062252.000,A,4144.7489,N,00439.3523,W,52.08,234.24,300707,,,A*4C
$GPGGA,062253.000,4144.7405,N,00439.3678,W,1,08,1.0,709.0,M,51.6,M,,0000*4C
$GPGSA,A,3,20,23,13,04,27,02,25,17,,,,,1.9,1.0,1.6*3F
$GPRMC,062253.000,A,4144.7405,N,00439.3678,W,52.06,233.77,300707,,,A*4B
$GPGGA,062254.000,4144.7320,N,00439.3833,W,1,08,1.0,708.9,M,51.6,M,,0000*42
$GPGSA,A,3,20,23,13,04,27,02,25,17,,,,,1.9,1.0,1.6*3F
$GPGSV,3,1,09,13,84,190,32,23,61,051,35,04,58,302,39,20,32,080,27*7D
$GPGSV,3,2,09,25,30,151,33,17,24,218,35,02,21,312,38,27,17,167,23*75
$GPGSV,3,3,09,11,05,145,*45
$GPRMC,062254.000,A,4144.7320,N,00439.3833,W,52.36,233.80,300707,,,A*46
$GPGGA,062255.000,4144.7234,N,00439.3990,W,1,08,1.0,708.7,M,51.6,M,,0000*41
$GPGSA,A,3,20,23,13,04,27,02,25,17,,,,,1.9,1.0,1.6*3F
$GPRMC,062255.000,A,4144.7234,N,00439.3990,W,52.79,233.72,300707,,,A*4D
$GPGGA,062256.000,4144.7148,N,00439.4148,W,1,08,1.0,708.5,M,51.6,M,,0000*42
$GPGSA,A,3,20,23,13,04,27,02,25,17,,,,,1.9,1.0,1.6*3F
$GPRMC,062256.000,A,4144.7148,N,00439.4148,W,53.03,234.10,300707,,,A*43
$GPGGA,062257.000,4144.7061,N,00439.4307,W,1,08,1.0,708.4,M,51.6,M,,0000*41
$GPGSA,A,3,20,23,13,04,27,02,25,17,,,,,1.9,1.0,1.6*3F
$GPRMC,062257.000,A,4144.7061,N,00439.4307,W,53.18,234.18,300707,,,A*43
$GPGGA,062258.000,4144.6975,N,00439.4467,W,1,08,1.0,708.3,M,51.6,M,,0000*45
$GPGSA,A,3,20,23,13,04,27,02,25,17,,,,,1.9,1.0,1.6*3F
$GPRMC,062258.000,A,4144.6975,N,00439.4467,W,53.61,234.03,300707,,,A*44
$GPGGA,062259.000,4144.6887,N,00439.4628,W,1,08,1.0,708.2,M,51.6,M,,0000*40
$GPGSA,A,3,20,23,13,04,27,02,25,17,,,,,1.9,1.0,1.6*3F
$GPGSV,3,1,09,13,84,190,32,23,61,051,36,04,58,302,39,20,32,080,27*7E
$GPGSV,3,2,09,25,30,151,33,17,24,218,35,02,21,312,38,27,17,167,23*75
$GPGSV,3,3,09,11,05,145,10*44
$GPRMC,062259.000,A,4144.6887,N,00439.4628,W,53.78,233.97,300707,,,A*42
$GPGGA,062300.000,4144.6799,N,00439.4789,W,1,08,1.0,708.1,M,51.6,M,,0000*44
$GPGSA,A,3,20,23,13,04,27,02,25,17,,,,,1.9,1.0,1.6*3F
$GPRMC,062300.000,A,4144.6799,N,00439.4789,W,53.60,234.04,300707,,,A*41
$GPGGA,062301.000,4144.6712,N,00439.4950,W,1,08,1.0,708.0,M,51.6,M,,0000*4D
$GPGSA,A,3,20,23,13,04,27,02,25,17,,,,,1.9,1.0,1.6*3F
$GPRMC,062301.000,A,4144.6712,N,00439.4950,W,53.48,233.86,300707,,,A*4E
$GPGGA,062302.000,4144.6625,N,00439.5109,W,1,08,1.0,708.0,M,51.6,M,,0000*4E
$GPGSA,A,3,20,23,13,04,27,02,25,17,,,,,1.9,1.0,1.6*3F
$GPRMC,062302.000,A,4144.6625,N,00439.5109,W,53.37,233.89,300707,,,A*4A
$GPGGA,062303.000,4144.6538,N,00439.5269,W,1,08,1.0,708.1,M,51.6,M,,0000*44
$GPGSA,A,3,20,23,13,04,27,02,25,17,,,,,1.9,1.0,1.6*3F
$GPRMC,062303.000,A,4144.6538,N,00439.5269,W,53.16,234.05,300707,,,A*41
$GPGGA,062304.000,4144.6452,N,00439.5428,W,1,08,1.0,708.2,M,51.6,M,,0000*4E
$GPGSA,A,3,20,23,13,04,27,02,25,17,,,,,1.9,1.0,1.6*3F
$GPGSV,3,1,09,13,84,190,32,23,61,051,36,04,58,302,39,20,32,080,27*7E
$GPGSV,3,2,09,25,30,151,33,17,24,218,35,02,21,312,38,27,17,167,23*75
$GPGSV,3,3,09,11,05,145,12*46
$GPRMC,062304.000,A,4144.6452,N,00439.5428,W,53.00,234.07,300707,,,A*4D
$GPGGA,062305.000,4144.6365,N,00439.5586,W,1,08,1.0,708.1,M,51.6,M,,0000*4A
$GPGSA,A,3,20,23,13,04,27,02,25,17,,,,,1.9,1.0,1.6*3F
$GPRMC,062305.000,A,4144.6365,N,00439.5586,W,52.74,233.89,300707,,,A*49
$GPGGA,062306.000,4144.6280,N,00439.5744,W,1,08,1.0,708.2,M,51.6,M,,0000*4C
$GPGSA,A,3,20,23,13,04,27,02,25,17,,,,,1.9,1.0,1.6*3F
$GPRMC,062306.000,A,4144.6280,N,00439.5744,W,52.42,233.97,300707,,,A*46
$GPGGA,062307.000,4144.6195,N,00439.5900,W,1,08,1.0,708.3,M,51.6,M,,0000*45
$GPGSA,A,3,20,23,13,04,27,02,25,17,,,,,1.9,1.0,1.6*3F
$GPRMC,062307.000,A,4144.6195,N,00439.5900,W,51.96,234.03,300707,,,A*4E
$GPGGA,062308.000,4144.6110,N,00439.6054,W,1,08,1.0,708.3,M,51.6,M,,0000*4C
$GPGSA,A,3,20,23,13,04,27,02,25,17,,,,,1.9,1.0,1.6*3F
$GPRMC,062308.000,A,4144.6110,N,00439.6054,W,51.32,233.77,300707,,,A*4D
$GPGGA,062309.000,4144.6026,N,00439.6205,W,1,08,1.0,708.2,M,51.6,M,,0000*4E
$GPGSA,A,3,20,23,13,04,27,02,25,17,,,,,1.9,1.0,1.6*3F
$GPGSV,3,1,09,13,84,190,32,23,61,051,36,04,58,302,39,20,32,080,26*7F
$GPGSV,3,2,09,25,30,151,33,17,24,218,35,02,21,312,38,27,17,167,24*72
$GPGSV,3,3,09,11,05,145,08*4D
$GPRMC,062309.000,A,4144.6026,N,00439.6205,W,50.50,233.07,300707,,,A*4C
$GPGGA,062310.000,4144.5943,N,00439.6353,W,1,08,1.0,708.2,M,51.6,M,,0000*4D
$GPGSA,A,3,20,23,13,04,27,02,25,17,,,,,1.9,1.0,1.6*3F
$GPRMC,062310.000,A,4144.5943,N,00439.6353,W,49.66,232.67,300707,,,A*45
$GPGGA,062311.000,4144.5860,N,00439.6497,W,1,08,1.0,708.1,M,51.6,M,,0000*40
$GPGSA,A,3,20,23,13,04,27,02,25,17,,,,,1.9,1.0,1.6*3F
$GPRMC,062311.000,A,4144.5860,N,00439.6497,W,48.71,232.18,300707,,,A*44
$GPGGA,062312.000,4144.5778,N,00439.6636,W,1,08,1.0,708.1,M,51.6,M,,0000*4C
$GPGSA,A,3,20,23,13,04,27,02,25,17,,,,,1.9,1.0,1.6*3F
$GPRMC,062312.000,A,4144.5778,N,00439.6636,W,47.64,231.66,300707,,,A*49
$GPGGA,062313.000,4144.5695,N,00439.6775,W,1,08,1.0,708.3,M,51.6,M,,0000*4B
$GPGSA,A,3,20,23,13,04,27,02,25,17,,,,,1.9,1.0,1.6*3F
$GPRMC,062313.000,A,4144.5695,N,00439.6775,W,47.47,231.58,300707,,,A*40
$GPGGA,062314.000,4144.5614,N,00439.6912,W,1,08,1.0,708.3,M,51.6,M,,0000*4A
$GPGSA,A,3,20,23,13,04,27,02,25,17,,,,,1.9,1.0,1.6*3F
$GPGSV,3,1,09,13,84,190,32,23,61,051,36,04,58,302,39,20,32,080,18*72
$GPGSV,3,2,09,25,30,151,34,17,24,218,36,02,21,312,39,27,17,167,28*7B
$GPGSV,3,3,09,11,05,145,*45
$GPRMC,062314.000,A,4144.5614,N,00439.6912,W,46.77,231.34,300707,,,A*49
$GPGGA,062315.000,4144.5534,N,00439.7044,W,1,08,1.0,708.3,M,51.6,M,,0000*41
$GPGSA,A,3,20,23,13,04,27,02,25,17,,,,,1.9,1.0,1.6*3F
$GPRMC,062315.000,A,4144.5534,N,00439.7044,W,45.93,231.19,300707,,,A*44
$GPGGA,062316.000,4144.5455,N,00439.7174,W,1,08,1.0,708.3,M,51.6,M,,0000*46
$GPGSA,A,3,20,23,13,04,27,02,25,17,,,,,1.9,1.0,1.6*3F
$GPRMC,062316.000,A,4144.5455,N,00439.7174,W,44.71,230.51,300707,,,A*43
$GPGGA,062317.000,4144.5377,N,00439.7302,W,1,08,1.0,708.4,M,51.6,M,,0000*44
$GPGSA,A,3,20,23,13,04,27,02,25,17,,,,,1.9,1.0,1.6*3F
$GPRMC,062317.000,A,4144.5377,N,00439.7302,W,44.76,231.17,300707,,,A*42
$GPGGA,062318.000,4144.5300,N,00439.7430,W,1,08,1.0,708.5,M,51.6,M,,0000*4C
$GPGSA,A,3,20,23,13,04,27,02,25,17,,,,,1.9,1.0,1.6*3F
$GPRMC,062318.000,A,4144.5300,N,00439.7430,W,44.25,231.17,300707,,,A*4D
$GPGGA,062319.000,4144.5225,N,00439.7553,W,1,09,1.0,708.3,M,51.6,M,,0000*48
$GPGSA,A,3,20,23,13,04,11,27,02,25,17,,,,1.7,1.0,1.4*33
$GPGSV,3,1,09,13,84,190,31,23,61,051,36,04,58,302,38,20,32,080,18*70
$GPGSV,3,2,09,25,30,151,34,17,24,218,35,02,21,312,39,27,17,167,28*78
$GPGSV,3,3,09,11,05,145,26*41
$GPRMC,062319.000,A,4144.5225,N,00439.7553,W,42.81,230.82,300707,,,A*4B
$GPGGA,062320.000,4144.5152,N,00439.7672,W,1,09,1.0,708.2,M,51.6,M,,0000*40
$GPGSA,A,3,20,23,13,04,11,27,02,25,17,,,,1.7,1.0,1.4*33
$GPRMC,062320.000,A,4144.5152,N,00439.7672,W,41.02,230.44,300707,,,A*40
$GPGGA,062321.000,4144.5081,N,00439.7786,W,1,07,1.4,708.3,M,51.6,M,,0000*4F
$GPGSA,A,3,23,13,04,27,02,25,17,,,,,,2.3,1.4,1.8*3E
$GPRMC,062321.000,A,4144.5081,N,00439.7786,W,39.66,230.26,300707,,,A*4D
$GPGGA,062322.000,4144.5012,N,00439.7897,W,1,08,1.0,708.2,M,51.6,M,,0000*43
$GPGSA,A,3,20,23,13,04,27,02,25,17,,,,,1.9,1.0,1.6*3F
$GPRMC,062322.000,A,4144.5012,N,00439.7897,W,39.03,230.08,300707,,,A*44
$GPGGA,062323.000,4144.4944,N,00439.8004,W,1,08,1.0,707.8,M,51.6,M,,0000*41
$GPGSA,A,3,20,23,13,04,27,02,25,17,,,,,1.9,1.0,1.6*3F
$GPRMC,062323.000,A,4144.4944,N,00439.8004,W,38.70,229.75,300707,,,A*44
$GPGGA,062324.000,4144.4874,N,00439.8114,W,1,08,1.0,707.8,M,51.6,M,,0000*44
$GPGSA,A,3,20,23,13,04,27,02,25,17,,,,,1.9,1.0,1.6*3F
$GPGSV,3,1,09,13,84,190,31,23,61,051,36,04,58,302,38,20,32,080,25*7E
$GPGSV,3,2,09,25,30,151,34,17,24,218,36,02,21,312,39,27,17,167,29*7A
$GPGSV,3,3,09,11,05,145,10*44
$GPRMC,062324.000,A,4144.4874,N,00439.8114,W,39.38,229.67,300707,,,A*4F
$GPGGA,062325.000,4144.4802,N,00439.8228,W,1,08,1.0,708.0,M,51.6,M,,0000*4F
$GPGSA,A,3,20,23,13,04,27,02,25,17,,,,,1.9,1.0,1.6*3F
$GPRMC,062325.000,A,4144.4802,N,00439.8228,W,40.75,229.49,300707,,,A*48
$GPGGA,062326.000,4144.4726,N,00439.8344,W,1,08,1.0,708.0,M,51.6,M,,0000*4E
$GPGSA,A,3,20,23,13,04,27,02,25,17,,,,,1.9,1.0,1.6*3F
$GPRMC,062326.000,A,4144.4726,N,00439.8344,W,42.19,228.77,300707,,,A*4D
$GPGGA,062327.000,4144.4647,N,00439.8464,W,1,08,1.0,708.2,M,51.6,M,,0000*4E
$GPGSA,A,3,20,23,13,04,27,02,25,17,,,,,1.9,1.0,1.6*3F
$GPRMC,062327.000,A,4144.4647,N,00439.8464,W,43.98,228.30,300707,,,A*44
$GPGGA,062328.000,4144.4563,N,00439.8588,W,1,08,1.0,708.3,M,51.6,M,,0000*46
$GPGSA,A,3,20,23,13,04,27,02,25,17,,,,,1.9,1.0,1.6*3F
$GPRMC,062328.000,A,4144.4563,N,00439.8588,W,45.35,227.68,300707,,,A*4E
$GPGGA,062329.000,4144.4476,N,00439.8715,W,1,08,1.0,708.4,M,51.6,M,,0000*43
$GPGSA,A,3,20,23,13,04,27,02,25,17,,,,,1.9,1.0,1.6*3F
$GPGSV,3,1,09,13,84,190,32,23,61,051,36,04,58,302,38,20,32,080,28*70
$GPGSV,3,2,09,25,30,151,34,17,24,218,37,02,21,312,39,27,17,167,30*73
$GPGSV,3,3,09,11,05,145,12*46
$GPRMC,062329.000,A,4144.4476,N,00439.8715,W,46.82,227.62,300707,,,A*49
$GPGGA,062330.000,4144.4387,N,00439.8847,W,1,08,1.0,708.5,M,51.6,M,,0000*4B
$GPGSA,A,3,20,23,13,04,27,02,25,17,,,,,1.9,1.0,1.6*3F
$GPRMC,062330.000,A,4144.4387,N,00439.8847,W,48.38,227.84,300707,,,A*47
$GPGGA,062331.000,4144.4295,N,00439.8984,W,1,08,1.0,708.7,M,51.6,M,,0000*44
$GPGSA,A,3,20,23,13,04,27,02,25,17,,,,,1.9,1.0,1.6*3F
$GPRMC,062331.000,A,4144.4295,N,00439.8984,W,49.57,227.97,300707,,,A*40
$GPGGA,062332.000,4144.4202,N,00439.9121,W,1,08,1.0,708.8,M,51.6,M,,0000*40
$GPGSA,A,3,20,23,13,04,27,02,25,17,,,,,1.9,1.0,1.6*3F
$GPRMC,062332.000,A,4144.4202,N,00439.9121,W,49.43,228.08,300707,,,A*47
$GPGGA,062333.000,4144.4110,N,00439.9258,W,1,08,1.0,708.9,M,51.6,M,,0000*4D
$GPGSA,A,3,20,23,13,04,27,02,25,17,,,,,1.9,1.0,1.6*3F
$GPRMC,062333.000,A,4144.4110,N,00439.9258,W,49.26,228.04,300707,,,A*44
$GPGGA,062334.000,4144.4018,N,00439.9395,W,1,08,1.0,708.9,M,51.6,M,,0000*43
$GPGSA,A,3,20,23,13,04,27,02,25,17,,,,,1.9,1.0,1.6*3F
$GPGSV,3,1,09,13,84,190,32,23,61,051,37,04,58,302,38,20,32,080,27*7E
$GPGSV,3,2,09,25,30,151,34,17,24,218,38,02,21,312,39,27,17,167,29*74
$GPGSV,3,3,09,11,05,145,*45
$GPRMC,062334.000,A,4144.4018,N,00439.9395,W,49.30,228.10,300707,,,A*48
$GPGGA,062335.000,4144.3926,N,00439.9531,W,1,08,1.0,708.9,M,51.6,M,,0000*49
$GPGSA,A,3,20,23,13,04,27,02,25,17,,,,,1.9,1.0,1.6*3F
$GPRMC,062335.000,A,4144.3926,N,00439.9531,W,49.31,228.14,300707,,,A*47
$GPGGA,062336.000,4144.3835,N,00439.9668,W,1,08,1.0,708.8,M,51.6,M,,0000*47
$GPGSA,A,3,20,23,13,04,27,02,25,17,,,,,1.9,1.0,1.6*3F
$GPRMC,062336.000,A,4144.3835,N,00439.9668,W,49.18,228.02,300707,,,A*44
$GPGGA,062337.000,4144.3743,N,00439.9804,W,1,09,1.0,708.7,M,51.6,M,,0000*42
$GPGSA,A,3,20,23,13,04,11,27,02,25,17,,,,1.7,1.0,1.4*33
$GPRMC,062337.000,A,4144.3743,N,00439.9804,W,49.11,228.15,300707,,,A*40
$GPGGA,062338.000,4144.3652,N,00439.9940,W,1,08,1.0,708.6,M,51.6,M,,0000*4D
$GPGSA,A,3,20,23,13,04,27,02,25,17,,,,,1.9,1.0,1.6*3F
$GPRMC,062338.000,A,4144.3652,N,00439.9940,W,49.19,228.33,300707,,,A*43
$GPGGA,062339.000,4144.3561,N,00440.0077,W,1,08,1.0,708.6,M,51.6,M,,0000*45
$GPGSA,A,3,20,23,13,04,27,02,25,17,,,,,1.9,1.0,1.6*3F
$GPGSV,3,1,09,13,84,190,33,23,61,051,37,04,58,302,38,20,32,080,27*7F
$GPGSV,3,2,09,25,30,151,34,17,24,218,38,02,21,312,39,27,17,167,28*75
$GPGSV,3,3,09,11,05,145,*45
$GPRMC,062339.000,A,4144.3561,N,00440.0077,W,49.39,228.41,300707,,,A*4C
$GPGGA,062340.000,4144.3469,N,00440.0215,W,1,08,1.0,708.6,M,51.6,M,,0000*44
$GPGSA,A,3,20,23,13,04,27,02,25,17,,,,,1.9,1.0,1.6*3F
$GPRMC,062340.000,A,4144.3469,N,00440.0215,W,49.88,228.43,300707,,,A*45
$GPGGA,062341.000,4144.3377,N,00440.0355,W,1,08,1.0,708.7,M,51.6,M,,0000*49
$GPGSA,A,3,20,23,13,04,27,02,25,17,,,,,1.9,1.0,1.6*3F
$GPRMC,062341.000,A,4144.3377,N,00440.0355,W,50.74,228.46,300707,,,A*47
$GPGGA,062342.000,4144.3282,N,00440.0498,W,1,09,1.0,708.6,M,51.6,M,,0000*47
$GPGSA,A,3,20,23,13,04,11,27,02,25,17,,,,1.7,1.0,1.4*33
$GPRMC,062342.000,A,4144.3282,N,00440.0498,W,51.61,228.47,300707,,,A*4D
$GPGGA,062343.000,4144.3186,N,00440.0643,W,1,09,1.0,708.6,M,51.6,M,,0000*45
$GPGSA,A,3,20,23,13,04,11,27,02,25,17,,,,1.7,1.0,1.4*33
$GPRMC,062343.000,A,4144.3186,N,00440.0643,W,52.44,228.39,300707,,,A*42
$GPGGA,062344.000,4144.3088,N,00440.0789,W,1,09,1.0,708.5,M,51.6,M,,0000*49
$GPGSA,A,3,20,23,13,04,11,27,02,25,17,,,,1.7,1.0,1.4*33
$GPGSV,3,1,09,13,84,190,33,23,61,051,37,04,58,302,38,20,32,080,28*70
$GPGSV,3,2,09,25,30,151,34,17,24,218,38,02,21,312,39,27,17,167,30*7C
$GPGSV,3,3,09,11,05,145,17*43
$GPRMC,062344.000,A,4144.3088,N,00440.0789,W,53.03,228.26,300707,,,A*41
$GPGGA,062345.000,4144.2990,N,00440.0937,W,1,09,1.0,708.4,M,51.6,M,,0000*43
$GPGSA,A,3,20,23,13,04,11,27,02,25,17,,,,1.7,1.0,1.4*33
$GPRMC,062345.000,A,4144.2990,N,00440.0937,W,53.32,228.32,300707,,,A*4D
$GPGGA,062346.000,4144.2891,N,00440.1085,W,1,08,1.6,708.4,M,51.6,M,,0000*46
$GPGSA,A,3,20,23,13,04,11,27,25,17,,,,,2.8,1.6,2.3*3F
$GPRMC,062346.000,A,4144.2891,N,00440.1085,W,53.54,228.52,300707,,,A*49
$GPGGA,062347.000,4144.2792,N,00440.1235,W,1,09,1.0,708.5,M,51.6,M,,0000*44
$GPGSA,A,3,20,23,13,04,11,27,02,25,17,,,,1.7,1.0,1.4*33
$GPRMC,062347.000,A,4144.2792,N,00440.1235,W,53.59,228.90,300707,,,A*4E
$GPGGA,062348.000,4144.2694,N,00440.1384,W,1,09,1.0,708.6,M,51.6,M,,0000*44
$GPGSA,A,3,20,23,13,04,11,27,02,25,17,,,,1.7,1.0,1.4*33
$GPRMC,062348.000,A,4144.2694,N,00440.1384,W,53.18,228.51,300707,,,A*45
$GPGGA,062349.000,4144.2597,N,00440.1531,W,1,09,1.0,708.6,M,51.6,M,,0000*4D
$GPGSA,A,3,20,23,13,04,11,27,02,25,17,,,,1.7,1.0,1.4*33
$GPGSV,3,1,09,13,85,188,33,23,61,051,37,04,59,301,38,20,32,080,28*7A
$GPGSV,3,2,09,25,31,151,35,17,23,218,38,02,21,312,39,27,17,167,32*79
$GPGSV,3,3,09,11,05,145,18*4C
$GPRMC,062349.000,A,4144.2597,N,00440.1531,W,52.74,228.10,300707,,,A*42
$GPGGA,062350.000,4144.2499,N,00440.1677,W,1,08,1.0,708.6,M,51.6,M,,0000*4A
$GPGSA,A,3,20,23,13,04,11,02,25,17,,,,,1.7,1.0,1.4*36
$GPRMC,062350.000,A,4144.2499,N,00440.1677,W,52.37,228.55,300707,,,A*42
$GPGGA,062351.000,4144.2403,N,00440.1822,W,1,09,1.0,708.7,M,51.6,M,,0000*46
$GPGSA,A,3,20,23,13,04,11,27,02,25,17,,,,1.7,1.0,1.4*33
$GPRMC,062351.000,A,4144.2403,N,00440.1822,W,52.29,228.54,300707,,,A*40
$GPGGA,062352.000,4144.2307,N,00440.1967,W,1,09,1.0,708.6,M,51.6,M,,0000*47
$GPGSA,A,3,20,23,13,04,11,27,02,25,17,,,,1.7,1.0,1.4*33
$GPRMC,062352.000,A,4144.2307,N,00440.1967,W,52.27,228.42,300707,,,A*49
$GPGGA,062353.000,4144.2211,N,00440.2112,W,1,09,1.0,708.6,M,51.6,M,,0000*49
$GPGSA,A,3,20,23,13,04,11,27,02,25,17,,,,1.7,1.0,1.4*33
$GPRMC,062353.000,A,4144.2211,N,00440.2112,W,52.01,228.88,300707,,,A*45
$GPGGA,062354.000,4144.2116,N,00440.2257,W,1,09,1.0,708.6,M,51.6,M,,0000*48
$GPGSA,A,3,20,23,13,04,11,27,02,25,17,,,,1.7,1.0,1.4*33
$GPGSV,3,1,09,13,85,188,33,23,61,051,37,04,59,301,38,20,32,080,28*7A
$GPGSV,3,2,09,25,31,151,34,17,23,218,38,02,21,312,38,27,17,167,27*7D
$GPGSV,3,3,09,11,05,145,17*43
$GPRMC,062354.000,A,4144.2116,N,00440.2257,W,51.97,228.44,300707,,,A*48
$GPGGA,062355.000,4144.2020,N,00440.2402,W,1,09,1.0,708.6,M,51.6,M,,0000*4B
$GPGSA,A,3,20,23,13,04,11,27,02,25,17,,,,1.7,1.0,1.4*33
$GPRMC,062355.000,A,4144.2020,N,00440.2402,W,51.86,228.55,300707,,,A*4B
$GPGGA,062356.000,4144.1925,N,00440.2545,W,1,09,1.0,708.7,M,51.6,M,,0000*44
$GPGSA,A,3,20,23,13,04,11,27,02,25,17,,,,1.7,1.0,1.4*33
$GPRMC,062356.000,A,4144.1925,N,00440.2545,W,51.59,228.56,300707,,,A*44
$GPGGA,062357.000,4144.1830,N,00440.2688,W,1,09,1.0,708.9,M,51.6,M,,0000*4C
$GPGSA,A,3,20,23,13,04,11,27,02,25,17,,,,1.7,1.0,1.4*33
$GPRMC,062357.000,A,4144.1830,N,00440.2688,W,51.18,228.58,300707,,,A*49
$GPGGA,062358.000,4144.1737,N,00440.2830,W,1,09,1.0,708.9,M,51.6,M,,0000*46
$GPGSA,A,3,20,23,13,04,11,27,02,25,17,,,,1.7,1.0,1.4*33
$GPRMC,062358.000,A,4144.1737,N,00440.2830,W,50.45,228.42,300707,,,A*41
$GPGGA,062359.000,4144.1645,N,00440.2968,W,1,09,1.0,709.0,M,51.6,M,,0000*47
$GPGSA,A,3,20,23,13,04,11,27,02,25,17,,,,1.7,1.0,1.4*33
$GPGSV,3,1,09,13,85,188,33,23,61,051,37,04,59,301,38,20,32,080,28*7A
$GPGSV,3,2,09,25,31,151,34,17,23,218,38,02,21,312,39,27,17,167,26*7D
$GPGSV,3,3,09,11,05,145,16*42
$GPRMC,062359.000,A,4144.1645,N,00440.2968,W,49.63,228.30,300707,,,A*41
$GPGGA,062400.000,4144.1553,N,00440.3104,W,1,09,1.0,709.2,M,51.6,M,,0000*49
$GPGSA,A,3,20,23,13,04,11,27,02,25,17,,,,1.7,1.0,1.4*33
$GPRMC,062400.000,A,4144.1553,N,00440.3104,W,49.22,227.58,300707,,,A*49
$GPGGA,062401.000,4144.1459,N,00440.3239,W,1,09,1.0,709.2,M,51.6,M,,0000*4E
$GPGSA,A,3,20,23,13,04,11,27,02,25,17,,,,1.7,1.0,1.4*33
$GPRMC,062401.000,A,4144.1459,N,00440.3239,W,49.68,226.56,300707,,,A*4F
$GPGGA,062402.000,4144.1363,N,00440.3373,W,1,09,1.0,709.4,M,51.6,M,,0000*4A
$GPGSA,A,3,20,23,13,04,11,27,02,25,17,,,,1.7,1.0,1.4*33
$GPRMC,062402.000,A,4144.1363,N,00440.3373,W,50.78,225.99,300707,,,A*44
$GPGGA,062403.000,4144.1263,N,00440.3510,W,1,09,1.0,709.6,M,51.6,M,,0000*4B
$GPGSA,A,3,20,23,13,04,11,27,02,25,17,,,,1.7,1.0,1.4*33
$GPRMC,062403.000,A,4144.1263,N,00440.3510,W,51.87,225.21,300707,,,A*45
$GPGGA,062404.000,4144.1159,N,00440.3647,W,1,09,1.0,709.7,M,51.6,M,,0000*46
$GPGSA,A,3,20,23,13,04,11,27,02,25,17,,,,1.7,1.0,1.4*33
$GPGSV,3,1,09,13,85,188,34,23,61,051,37,04,59,301,38,20,32,080,28*7D
$GPGSV,3,2,09,25,31,151,34,17,23,218,39,02,21,312,38,27,17,167,30*7A
$GPGSV,3,3,09,11,05,145,17*43
$GPRMC,062404.000,A,4144.1159,N,00440.3647,W,52.91,224.62,300707,,,A*4B
$GPGGA,062405.000,4144.1053,N,00440.3784,W,1,09,1.0,709.8,M,51.6,M,,0000*4D
$GPGSA,A,3,20,23,13,04,11,27,02,25,17,,,,1.7,1.0,1.4*33
$GPRMC,062405.000,A,4144.1053,N,00440.3784,W,53.67,223.59,300707,,,A*48
$GPGGA,062406.000,4144.0942,N,00440.3919,W,1,09,1.0,709.9,M,51.6,M,,0000*4D
$GPGSA,A,3,20,23,13,04,11,27,02,25,17,,,,1.7,1.0,1.4*33
$GPRMC,062406.000,A,4144.0942,N,00440.3919,W,54.00,221.66,300707,,,A*41
$GPGGA,062407.000,4144.0827,N,00440.4050,W,1,09,1.0,709.8,M,51.6,M,,0000*4C
$GPGSA,A,3,20,23,13,04,11,27,02,25,17,,,,1.7,1.0,1.4*33
$GPRMC,062407.000,A,4144.0827,N,00440.4050,W,54.63,220.05,300707,,,A*40
$GPGGA,062408.000,4144.0709,N,00440.4180,W,1,09,1.0,709.8,M,51.6,M,,0000*4C
$GPGSA,A,3,20,23,13,04,11,27,02,25,17,,,,1.7,1.0,1.4*33
$GPRMC,062408.000,A,4144.0709,N,00440.4180,W,55.32,218.91,300707,,,A*43
$GPGGA,062409.000,4144.0587,N,00440.4309,W,1,09,1.0,709.9,M,51.6,M,,0000*4B
$GPGSA,A,3,20,23,13,04,11,27,02,25,17,,,,1.7,1.0,1.4*33
$GPGSV,3,1,09,13,85,188,34,23,60,051,36,04,59,301,38,20,31,080,27*71
$GPGSV,3,2,09,25,31,151,35,17,23,218,39,02,21,312,38,27,17,167,30*7B
$GPGSV,3,3,09,11,05,145,17*43
$GPRMC,062409.000,A,4144.0587,N,00440.4309,W,56.21,218.69,300707,,,A*43
$GPGGA,062410.000,4144.0464,N,00440.4440,W,1,09,1.0,709.9,M,51.6,M,,0000*45
$GPGSA,A,3,20,23,13,04,11,27,02,25,17,,,,1.7,1.0,1.4*33
$GPRMC,062410.000,A,4144.0464,N,00440.4440,W,57.21,218.80,300707,,,A*4B
$GPGGA,062411.000,4144.0338,N,00440.4575,W,1,09,1.0,709.9,M,51.6,M,,0000*4D
$GPGSA,A,3,20,23,13,04,11,27,02,25,17,,,,1.7,1.0,1.4*33
$GPRMC,062411.000,A,4144.0338,N,00440.4575,W,58.21,218.93,300707,,,A*4E
$GPGGA,062412.000,4144.0210,N,00440.4711,W,1,09,1.0,710.0,M,51.6,M,,0000*44
$GPGSA,A,3,20,23,13,04,11,27,02,25,17,,,,1.7,1.0,1.4*33
$GPRMC,062412.000,A,4144.0210,N,00440.4711,W,59.25,218.76,300707,,,A*48
$GPGGA,062413.000,4144.0080,N,00440.4850,W,1,09,1.0,710.0,M,51.6,M,,0000*44
$GPGSA,A,3,20,23,13,04,11,27,02,25,17,,,,1.7,1.0,1.4*33
$GPRMC,062413.000,A,4144.0080,N,00440.4850,W,60.22,218.47,300707,,,A*47
$GPGGA,062414.000,4143.9947,N,00440.4990,W,1,09,1.0,710.0,M,51.6,M,,0000*42
$GPGSA,A,3,20,23,13,04,11,27,02,25,17,,,,1.7,1.0,1.4*33
$GPGSV,3,1,09,13,85,188,34,23,60,051,36,04,59,301,38,20,31,080,27*71
$GPGSV,3,2,09,25,31,151,35,17,23,218,39,02,21,312,37,27,17,167,26*73
$GPGSV,3,3,09,11,05,145,16*42
$GPRMC,062414.000,A,4143.9947,N,00440.4990,W,61.13,218.34,300707,,,A*46
$GPGGA,062415.000,4143.9812,N,00440.5132,W,1,08,1.0,710.1,M,51.6,M,,0000*43
$GPGSA,A,3,20,23,13,04,27,02,25,17,,,,,1.9,1.0,1.6*3F
$GPRMC,062415.000,A,4143.9812,N,00440.5132,W,62.05,218.30,300707,,,A*47
$GPGGA,062416.000,4143.9675,N,00440.5275,W,1,08,1.0,710.2,M,51.6,M,,0000*4C
$GPGSA,A,3,20,23,13,04,27,02,25,17,,,,,1.9,1.0,1.6*3F
$GPRMC,062416.000,A,4143.9675,N,00440.5275,W,62.91,218.23,300707,,,A*44
$GPGGA,062417.000,4143.9536,N,00440.5421,W,1,08,1.0,710.1,M,51.6,M,,0000*4D
$GPGSA,A,3,20,23,13,04,27,02,25,17,,,,,1.9,1.0,1.6*3F
$GPRMC,062417.000,A,4143.9536,N,00440.5421,W,63.60,218.50,300707,,,A*4D
$GPGGA,062418.000,4143.9396,N,00440.5570,W,1,08,1.0,710.3,M,51.6,M,,0000*49
$GPGSA,A,3,20,23,13,04,27,02,25,17,,,,,1.9,1.0,1.6*3F
$GPRMC,062418.000,A,4143.9396,N,00440.5570,W,64.24,218.67,300707,,,A*48
$GPGGA,062419.000,4143.9256,N,00440.5720,W,1,08,1.0,710.4,M,51.6,M,,0000*45
$GPGSA,A,3,20,23,13,04,27,02,25,17,,,,,1.9,1.0,1.6*3F
$GPGSV,3,1,09,13,85,187,34,23,60,051,36,04,59,301,38,20,31,080,26*7F
$GPGSV,3,2,09,25,31,151,35,17,23,218,38,02,21,312,34,27,17,167,26*71
$GPGSV,3,3,09,11,05,145,12*46
$GPRMC,062419.000,A,4143.9256,N,00440.5720,W,64.56,218.81,300707,,,A*4E
$GPGGA,062420.000,4143.9116,N,00440.5870,W,1,08,1.0,710.4,M,51.6,M,,0000*42
$GPGSA,A,3,20,23,13,04,27,02,25,17,,,,,1.9,1.0,1.6*3F
$GPRMC,062420.000,A,4143.9116,N,00440.5870,W,64.46,218.92,300707,,,A*4A
$GPGGA,062421.000,4143.8976,N,00440.6020,W,1,08,1.0,710.7,M,51.6,M,,0000*41
$GPGSA,A,3,20,23,13,04,27,02,25,17,,,,,1.9,1.0,1.6*3F
$GPRMC,062421.000,A,4143.8976,N,00440.6020,W,63.96,218.61,300707,,,A*4C
$GPGGA,062422.000,4143.8838,N,00440.6168,W,1,08,1.0,710.8,M,51.6,M,,0000*4B
$GPGSA,A,3,20,23,13,04,27,02,25,17,,,,,1.9,1.0,1.6*3F
$GPRMC,062422.000,A,4143.8838,N,00440.6168,W,63.39,218.80,300707,,,A*43
$GPGGA,062423.000,4143.8701,N,00440.6316,W,1,07,1.4,710.8,M,51.6,M,,0000*4F
$GPGSA,A,3,23,13,04,27,02,25,17,,,,,,2.3,1.4,1.8*3E
$GPRMC,062423.000,A,4143.8701,N,00440.6316,W,63.06,219.46,300707,,,A*4B
$GPGGA,062424.000,4143.8567,N,00440.6466,W,1,08,1.0,710.9,M,51.6,M,,0000*40
$GPGSA,A,3,20,23,13,04,27,02,25,17,,,,,1.9,1.0,1.6*3F
$GPGSV,3,1,09,13,85,187,34,23,60,051,36,04,59,301,39,20,31,080,13*78
$GPGSV,3,2,09,25,31,151,35,17,23,218,39,02,21,312,35,27,17,167,27*70
$GPGSV,3,3,09,11,05,145,17*43
$GPRMC,062424.000,A,4143.8567,N,00440.6466,W,62.89,220.44,300707,,,A*40
$GPGGA,062425.000,4143.8437,N,00440.6619,W,1,09,1.0,710.6,M,51.6,M,,0000*41
$GPGSA,A,3,20,23,13,04,11,27,02,25,17,,,,1.7,1.0,1.4*33
$GPRMC,062425.000,A,4143.8437,N,00440.6619,W,62.58,222.00,300707,,,A*41
$GPGGA,062426.000,4143.8310,N,00440.6777,W,1,09,1.0,710.5,M,51.6,M,,0000*4A
$GPGSA,A,3,20,23,13,04,11,27,02,25,17,,,,1.7,1.0,1.4*33
$GPRMC,062426.000,A,4143.8310,N,00440.6777,W,62.62,224.06,300707,,,A*40
$GPGGA,062427.000,4143.8188,N,00440.6942,W,1,09,1.0,710.4,M,51.6,M,,0000*41
$GPGSA,A,3,20,23,13,04,11,27,02,25,17,,,,1.7,1.0,1.4*33
$GPRMC,062427.000,A,4143.8188,N,00440.6942,W,62.68,226.05,300707,,,A*41
$GPGGA,062428.000,4143.8070,N,00440.7115,W,1,09,1.0,710.4,M,51.6,M,,0000*43
$GPGSA,A,3,20,23,13,04,11,27,02,25,17,,,,1.7,1.0,1.4*33
$GPRMC,062428.000,A,4143.8070,N,00440.7115,W,62.89,228.53,300707,,,A*41
$GPGGA,062429.000,4143.7958,N,00440.7295,W,1,09,1.0,710.4,M,51.6,M,,0000*45
$GPGSA,A,3,20,23,13,04,11,27,02,25,17,,,,1.7,1.0,1.4*33
$GPGSV,3,1,09,13,85,187,34,23,60,051,37,04,59,301,39,20,31,080,21*78
$GPGSV,3,2,09,25,31,151,35,17,23,218,39,02,21,312,37,27,17,167,28*7D
$GPGSV,3,3,09,11,05,145,17*43
$GPRMC,062429.000,A,4143.7958,N,00440.7295,W,63.04,230.83,300707,,,A*47
$GPGGA,062430.000,4143.7849,N,00440.7479,W,1,09,1.0,710.3,M,51.6,M,,0000*4F
$GPGSA,A,3,20,23,13,04,11,27,02,25,17,,,,1.7,1.0,1.4*33
$GPRMC,062430.000,A,4143.7849,N,00440.7479,W,63.17,232.19,300707,,,A*49
$GPGGA,062431.000,4143.7744,N,00440.7669,W,1,09,1.0,710.4,M,51.6,M,,0000*48
$GPGSA,A,3,20,23,13,04,11,27,02,25,17,,,,1.7,1.0,1.4*33
$GPRMC,062431.000,A,4143.7744,N,00440.7669,W,63.60,233.86,300707,,,A*4E
$GPGGA,062432.000,4143.7643,N,00440.7862,W,1,09,1.0,710.2,M,51.6,M,,0000*4E
$GPGSA,A,3,20,23,13,04,11,27,02,25,17,,,,1.7,1.0,1.4*33
$GPRMC,062432.000,A,4143.7643,N,00440.7862,W,63.71,235.44,300707,,,A*46
$GPGGA,062433.000,4143.7545,N,00440.8061,W,1,09,1.0,709.9,M,51.6,M,,0000*4D
$GPGSA,A,3,20,23,13,04,11,27,02,25,17,,,,1.7,1.0,1.4*33
$GPRMC,062433.000,A,4143.7545,N,00440.8061,W,64.19,237.10,300707,,,A*4C
$GPGGA,062434.000,4143.7451,N,00440.8265,W,1,09,1.0,709.5,M,51.6,M,,0000*44
$GPGSA,A,3,20,23,13,04,11,27,02,25,17,,,,1.7,1.0,1.4*33
$GPGSV,3,1,09,13,85,187,34,23,60,051,36,04,59,301,38,20,31,080,26*7F
$GPGSV,3,2,09,25,31,151,35,17,23,218,34,02,21,312,37,27,17,167,20*78
$GPGSV,3,3,09,11,05,145,19*4D
$GPRMC,062434.000,A,4143.7451,N,00440.8265,W,64.77,238.73,300707,,,A*4B
$GPGGA,062435.000,4143.7361,N,00440.8474,W,1,09,1.0,709.3,M,51.6,M,,0000*41
$GPGSA,A,3,20,23,13,04,11,27,02,25,17,,,,1.7,1.0,1.4*33
$GPRMC,062435.000,A,4143.7361,N,00440.8474,W,65.18,240.75,300707,,,A*49
