$GPGGA,124400.00,4230.670587,N,00525.621545,W,1,08,0.5,802.0,M,52.0,M,,*70
$GPGSA,A,3,05,09,12,15,17,18,21,24,26,28,,,2.5,1.4,2.1*3C
$GPRMC,124400.00,A,4230.670587,N,00525.621545,W,050.6,151.1,040513,,,A*46
$GPGGA,124401.00,4230.658683,N,00525.612732,W,1,08,0.5,802.0,M,52.0,M,,*7E
$GPGSA,A,3,05,09,12,15,17,21,24,26,28,,,,2.5,1.4,2.1*35
$GPRMC,124401.00,A,4230.658683,N,00525.612732,W,049.6,151.2,040513,,,A*43
$GPGGA,124402.00,4230.646981,N,00525.604108,W,1,08,0.5,802.0,M,52.0,M,,*77
$GPGSA,A,3,05,09,12,15,17,18,21,24,26,28,,,2.5,1.4,2.1*3C
$GPRMC,124402.00,A,4230.646981,N,00525.604108,W,048.8,151.4,040513,,,A*43
$GPGGA,124403.00,4230.635499,N,00525.595677,W,1,08,0.5,802.0,M,52.0,M,,*72
$GPGSA,A,3,05,09,12,15,17,18,21,24,26,28,,,2.5,1.4,2.1*3C
$GPRMC,124403.00,A,4230.635499,N,00525.595677,W,047.8,151.3,040513,,,A*4E
$GPGGA,124404.00,4230.624216,N,00525.587404,W,1,08,0.5,802.0,M,52.0,M,,*71
$GPGSA,A,3,05,09,12,15,17,18,21,24,26,28,,,2.5,1.4,2.1*3C
$GPRMC,124404.00,A,4230.624216,N,00525.587404,W,047.0,151.3,040513,,,A*45
$GPGGA,124405.00,4230.613143,N,00525.579262,W,1,08,0.5,801.9,M,52.0,M,,*7A
$GPGSA,A,3,05,09,12,15,17,18,21,24,26,28,,,2.5,1.4,2.1*3C
$GPRMC,124405.00,A,4230.613143,N,00525.579262,W,046.2,151.1,040513,,,A*45
$GPGGA,124406.00,4230.602239,N,00525.571258,W,1,08,0.5,801.8,M,52.0,M,,*77
$GPGSA,A,3,05,09,12,15,17,18,21,24,26,28,,,2.5,1.4,2.1*3C
$GPRMC,124406.00,A,4230.602239,N,00525.571258,W,045.4,151.5,040513,,,A*48
$GPGGA,124407.00,4230.591465,N,00525.563418,W,1,08,0.5,801.7,M,52.0,M,,*7E
$GPGSA,A,3,05,09,12,15,17,18,21,24,26,28,,,2.5,1.4,2.1*3C
$GPRMC,124407.00,A,4230.591465,N,00525.563418,W,044.8,151.9,040513,,,A*4F
$GPGGA,124408.00,4230.580772,N,00525.555679,W,1,08,0.5,801.7,M,52.0,M,,*74
$GPGSA,A,3,05,09,12,15,17,18,21,24,26,28,,,2.5,1.4,2.1*3C
$GPRMC,124408.00,A,4230.580772,N,00525.555679,W,044.3,151.7,040513,,,A*40
$GPGGA,124409.00,4230.570164,N,00525.547946,W,1,08,0.5,801.7,M,52.0,M,,*7B
$GPGSA,A,3,05,09,12,15,17,18,21,24,26,28,,,2.5,1.4,2.1*3C
$GPRMC,124409.00,A,4230.570164,N,00525.547946,W,044.0,151.4,040513,,,A*4F
$GPGGA,124410.00,4230.559568,N,00525.540231,W,1,08,0.5,801.6,M,52.0,M,,*7D
$GPGSA,A,3,05,09,12,15,17,18,21,24,26,28,,,2.5,1.4,2.1*3C
$GPRMC,124410.00,A,4230.559568,N,00525.540231,W,043.9,151.6,040513,,,A*44
$GPGGA,124411.00,4230.548939,N,00525.532545,W,1,08,0.5,801.5,M,52.0,M,,*76
$GPGSA,A,3,05,09,12,15,17,18,21,24,26,28,,,2.5,1.4,2.1*3C
$GPRMC,124411.00,A,4230.548939,N,00525.532545,W,043.9,152.0,040513,,,A*49
$GPGGA,124412.00,4230.538282,N,00525.524900,W,1,08,0.5,801.4,M,52.0,M,,*72
$GPGSA,A,3,05,09,12,15,17,18,21,24,26,28,,,2.5,1.4,2.1*3C
$GPRMC,124412.00,A,4230.538282,N,00525.524900,W,043.8,152.1,040513,,,A*4C
$GPGGA,124413.00,4230.527599,N,00525.517267,W,1,08,0.5,801.4,M,52.0,M,,*7A
$GPGSA,A,3,05,09,12,15,17,18,21,24,26,28,,,2.5,1.4,2.1*3C
$GPRMC,124413.00,A,4230.527599,N,00525.517267,W,043.8,152.1,040513,,,A*44
$GPGGA,124414.00,4230.516941,N,00525.509657,W,1,08,0.5,801.3,M,52.0,M,,*79
$GPGSA,A,3,05,09,12,15,17,18,21,24,26,28,,,2.5,1.4,2.1*3C
$GPRMC,124414.00,A,4230.516941,N,00525.509657,W,043.6,151.8,040513,,,A*44
$GPGGA,124415.00,4230.506345,N,00525.502023,W,1,08,0.5,801.3,M,52.0,M,,*79
$GPGSA,A,3,05,09,12,15,17,18,21,24,26,28,,,2.5,1.4,2.1*3C
$GPRMC,124415.00,A,4230.506345,N,00525.502023,W,043.5,151.2,040513,,,A*4D
$GPGGA,124416.00,4230.495823,N,00525.494383,W,1,08,0.5,801.2,M,52.0,M,,*7C
$GPGSA,A,3,05,09,12,15,17,18,21,24,26,28,,,2.5,1.4,2.1*3C
$GPRMC,124416.00,A,4230.495823,N,00525.494383,W,043.3,151.1,040513,,,A*4C
$GPGGA,124417.00,4230.485422,N,00525.486774,W,1,08,0.5,801.1,M,52.0,M,,*7D
$GPGSA,A,3,05,09,12,15,17,18,21,24,26,28,,,2.5,1.4,2.1*3C
$GPRMC,124417.00,A,4230.485422,N,00525.486774,W,042.9,151.1,040513,,,A*45
$GPGGA,124418.00,4230.475107,N,00525.479152,W,1,08,0.5,801.0,M,52.0,M,,*7C
$GPGSA,A,3,05,09,12,15,17,18,21,24,26,28,,,2.5,1.4,2.1*3C
$GPRMC,124418.00,A,4230.475107,N,00525.479152,W,042.7,150.6,040513,,,A*4D
$GPGGA,124419.00,4230.464896,N,00525.471310,W,1,08,0.5,801.0,M,52.0,M,,*70
$GPGSA,A,3,05,09,12,15,17,18,21,24,26,28,,,2.5,1.4,2.1*3C
$GPRMC,124419.00,A,4230.464896,N,00525.471310,W,042.6,150.2,040513,,,A*44
$GPGGA,124420.00,4230.454691,N,00525.463373,W,1,08,0.5,801.0,M,52.0,M,,*76
$GPGSA,A,3,05,09,12,15,17,18,21,24,26,28,,,2.5,1.4,2.1*3C
$GPRMC,124420.00,A,4230.454691,N,00525.463373,W,042.6,149.3,040513,,,A*4B
$GPGGA,124421.00,4230.444565,N,00525.455128,W,1,08,0.5,800.9,M,52.0,M,,*7F
$GPGSA,A,3,05,09,12,15,17,18,21,24,26,28,,,2.5,1.4,2.1*3C
$GPRMC,124421.00,A,4230.444565,N,00525.455128,W,042.7,148.9,040513,,,A*40
$GPGGA,124422.00,4230.434407,N,00525.446789,W,1,08,0.5,800.8,M,52.0,M,,*70
$GPGSA,A,3,05,09,12,15,17,18,21,24,26,28,,,2.5,1.4,2.1*3C
$GPRMC,124422.00,A,4230.434407,N,00525.446789,W,042.8,148.3,040513,,,A*4B
$GPGGA,124423.00,4230.424385,N,00525.438140,W,1,08,0.5,800.8,M,52.0,M,,*77
$GPGSA,A,3,05,09,12,15,17,18,21,24,26,28,,,2.5,1.4,2.1*3C
$GPRMC,124423.00,A,4230.424385,N,00525.438140,W,043.0,147.5,040513,,,A*4C
$GPGGA,124424.00,4230.414464,N,00525.429168,W,1,08,0.5,800.8,M,52.0,M,,*71
$GPGSA,A,3,05,09,12,15,17,18,21,24,26,28,,,2.5,1.4,2.1*3C
$GPRMC,124424.00,A,4230.414464,N,00525.429168,W,043.1,146.3,040513,,,A*4C
$GPGGA,124425.00,4230.404629,N,00525.419927,W,1,08,0.5,800.8,M,52.0,M,,*7A
$GPGSA,A,3,05,09,12,15,17,18,21,24,26,28,,,1.9,1.0,1.6*33
$GPRMC,124425.00,A,4230.404629,N,00525.419927,W,043.1,145.0,040513,,,A*47
$GPGGA,124426.00,4230.395002,N,00525.410174,W,1,08,0.5,800.9,M,52.0,M,,*7F
$GPGSA,A,3,05,09,12,15,17,18,21,24,26,28,,,1.9,1.0,1.6*33
$GPRMC,124426.00,A,4230.395002,N,00525.410174,W,043.1,142.9,040513,,,A*4D
$GPGGA,124427.00,4230.385534,N,00525.399974,W,1,08,0.5,801.0,M,52.0,M,,*79
$GPGSA,A,3,05,09,12,15,17,18,21,24,26,28,,,2.5,1.4,2.1*3C
$GPRMC,124427.00,A,4230.385534,N,00525.399974,W,043.3,141.2,040513,,,A*49
$GPGGA,124428.00,4230.376251,N,00525.389280,W,1,09,0.5,801.1,M,52.0,M,,*7F
$GPGSA,A,3,05,09,12,15,17,18,21,24,26,28,,,2.5,1.4,2.1*3C
$GPRMC,124428.00,A,4230.376251,N,00525.389280,W,043.5,139.5,040513,,,A*41
$GPGGA,124429.00,4230.366951,N,00525.378413,W,1,09,0.5,801.2,M,52.0,M,,*75
$GPGSA,A,3,05,09,12,15,17,18,21,24,26,28,,,2.5,1.4,2.1*3C
$GPRMC,124429.00,A,4230.366951,N,00525.378413,W,043.6,138.6,040513,,,A*49
$GPGGA,124430.00,4230.357846,N,00525.367105,W,1,09,0.5,801.3,M,52.0,M,,*75
$GPGSA,A,3,05,09,12,15,17,18,21,24,26,28,,,2.5,1.4,2.1*3C
$GPRMC,124430.00,A,4230.357846,N,00525.367105,W,043.7,137.6,040513,,,A*46
$GPGGA,124431.00,4230.348678,N,00525.355641,W,1,08,0.5,801.4,M,52.0,M,,*79
$GPGSA,A,3,05,09,12,15,17,18,21,24,26,28,,,1.9,1.0,1.6*33
$GPRMC,124431.00,A,4230.348678,N,00525.355641,W,043.9,136.9,040513,,,A*4C
$GPGGA,124432.00,4230.339689,N,00525.343962,W,1,08,0.5,801.5,M,52.0,M,,*7A
$GPGSA,A,3,05,09,12,15,17,18,21,24,26,28,,,2.5,1.4,2.1*3C
$GPRMC,124432.00,A,4230.339689,N,00525.343962,W,044.0,136.4,040513,,,A*4D
$GPGGA,124433.00,4230.330857,N,00525.332109,W,1,08,0.5,801.6,M,52.0,M,,*7F
$GPGSA,A,3,05,09,12,15,17,18,21,24,26,28,,,2.5,1.4,2.1*3C
$GPRMC,124433.00,A,4230.330857,N,00525.332109,W,044.1,135.4,040513,,,A*49
$GPGGA,124434.00,4230.322171,N,00525.320039,W,1,08,0.5,801.7,M,52.0,M,,*76
$GPGSA,A,3,05,09,12,15,17,18,24,26,28,,,,2.5,1.4,2.1*3F
$GPRMC,124434.00,A,4230.322171,N,00525.320039,W,044.2,134.3,040513,,,A*44
$GPGGA,124435.00,4230.313712,N,00525.307664,W,1,08,0.5,801.7,M,52.0,M,,*7D
$GPGSA,A,3,05,09,12,15,17,18,21,24,26,28,,,2.5,1.4,2.1*3C
$GPRMC,124435.00,A,4230.313712,N,00525.307664,W,044.3,132.7,040513,,,A*4C
$GPGGA,124436.00,4230.305501,N,00525.294904,W,1,09,0.5,801.8,M,52.0,M,,*75
$GPGSA,A,3,05,09,12,15,17,18,21,24,26,28,,,2.5,1.4,2.1*3C
$GPRMC,124436.00,A,4230.305501,N,00525.294904,W,044.5,130.9,040513,,,A*40
$GPGGA,124437.00,4230.297520,N,00525.281820,W,1,09,0.5,801.8,M,52.0,M,,*7E
$GPGSA,A,3,05,09,12,15,17,18,21,24,26,28,,,2.5,1.4,2.1*3C
$GPRMC,124437.00,A,4230.297520,N,00525.281820,W,044.6,129.4,040513,,,A*4D
$GPGGA,124438.00,4230.289838,N,00525.268426,W,1,08,0.5,801.8,M,52.0,M,,*76
$GPGSA,A,3,05,09,12,15,17,18,24,26,28,,,,2.5,1.4,2.1*3F
$GPRMC,124438.00,A,4230.289838,N,00525.268426,W,044.7,127.8,040513,,,A*47
$GPGGA,124439.00,4230.282435,N,00525.254786,W,1,08,0.5,801.9,M,52.0,M,,*7A
$GPGSA,A,3,05,09,12,15,17,18,24,26,28,,,,2.5,1.4,2.1*3F
$GPRMC,124439.00,A,4230.282435,N,00525.254786,W,044.7,126.3,040513,,,A*40
$GPGGA,124440.00,4230.275301,N,00525.240907,W,1,08,0.5,801.9,M,52.0,M,,*7E
$GPGSA,A,3,05,09,12,15,17,18,24,26,28,,,,2.5,1.4,2.1*3F
$GPRMC,124440.00,A,4230.275301,N,00525.240907,W,044.7,124.8,040513,,,A*4D
$GPGGA,124441.00,4230.268250,N,00525.226933,W,1,08,0.5,802.0,M,52.0,M,,*7B
$GPGSA,A,3,05,09,12,15,17,18,21,24,26,28,,,2.5,1.4,2.1*3C
$GPRMC,124441.00,A,4230.268250,N,00525.226933,W,044.8,124.0,040513,,,A*45
$GPGGA,124442.00,4230.261523,N,00525.212706,W,1,08,0.5,802.0,M,52.0,M,,*7D
$GPGSA,A,3,05,09,12,15,17,18,21,24,26,28,,,2.5,1.4,2.1*3C
$GPRMC,124442.00,A,4230.261523,N,00525.212706,W,044.7,123.0,040513,,,A*4B
$GPGGA,124443.00,4230.254844,N,00525.198464,W,1,08,0.5,801.9,M,52.0,M,,*7A
$GPGSA,A,3,05,09,12,15,17,18,21,24,26,28,,,2.5,1.4,2.1*3C
$GPRMC,124443.00,A,4230.254844,N,00525.198464,W,044.7,122.3,040513,,,A*44
$GPGGA,124444.00,4230.248415,N,00525.184030,W,1,08,0.5,801.9,M,52.0,M,,*70
$GPGSA,A,3,05,09,12,15,17,18,21,24,26,28,,,2.5,1.4,2.1*3C
$GPRMC,124444.00,A,4230.248415,N,00525.184030,W,044.7,121.5,040513,,,A*4B
$GPGGA,124445.00,4230.242232,N,00525.169448,W,1,08,0.5,801.8,M,52.0,M,,*71
$GPGSA,A,3,05,09,12,15,17,18,21,24,26,28,,,2.5,1.4,2.1*3C
$GPRMC,124445.00,A,4230.242232,N,00525.169448,W,044.6,120.0,040513,,,A*4E
$GPGGA,124446.00,4230.236388,N,00525.154635,W,1,08,0.5,801.6,M,52.0,M,,*79
$GPGSA,A,3,05,09,12,15,17,18,21,24,26,28,,,2.5,1.4,2.1*3C
$GPRMC,124446.00,A,4230.236388,N,00525.154635,W,044.6,118.0,040513,,,A*43
$GPGGA,124447.00,4230.230785,N,00525.139608,W,1,08,0.5,801.6,M,52.0,M,,*72
$GPGSA,A,3,05,09,12,15,17,18,21,24,26,28,,,2.5,1.4,2.1*3C
$GPRMC,124447.00,A,4230.230785,N,00525.139608,W,044.6,116.7,040513,,,A*41
$GPGGA,124448.00,4230.225443,N,00525.124378,W,1,08,0.5,801.5,M,52.0,M,,*7D
$GPGSA,A,3,05,09,12,15,17,18,21,24,26,28,,,2.5,1.4,2.1*3C
$GPRMC,124448.00,A,4230.225443,N,00525.124378,W,044.7,115.4,040513,,,A*4C
$GPGGA,124449.00,4230.220338,N,00525.108974,W,1,09,0.5,801.4,M,52.0,M,,*7A
$GPGSA,A,3,05,09,12,15,17,18,21,24,26,28,,,2.5,1.4,2.1*3C
$GPRMC,124449.00,A,4230.220338,N,00525.108974,W,044.7,114.1,040513,,,A*4F
$GPGGA,124450.00,4230.215254,N,00525.093460,W,1,08,0.5,801.2,M,52.0,M,,*73
$GPGSA,A,3,05,09,12,15,17,18,21,24,26,28,,,1.8,1.0,1.5*31
$GPRMC,124450.00,A,4230.215254,N,00525.093460,W,044.8,113.6,040513,,,A*4E
$GPGGA,124451.00,4230.210492,N,00525.077643,W,1,08,0.5,801.3,M,52.0,M,,*73
$GPGSA,A,3,05,09,12,15,17,18,21,24,26,28,,,1.9,1.0,1.6*33
$GPRMC,124451.00,A,4230.210492,N,00525.077643,W,044.9,112.4,040513,,,A*4D
$GPGGA,124452.00,4230.205843,N,00525.061739,W,1,08,0.5,801.4,M,52.0,M,,*78
$GPGSA,A,3,05,09,12,15,17,18,24,26,28,,,,2.5,1.4,2.1*3F
$GPRMC,124452.00,A,4230.205843,N,00525.061739,W,045.1,111.5,040513,,,A*4A
$GPGGA,124453.00,4230.201653,N,00525.045617,W,1,09,1.0,801.5,M,52.0,M,,*7D
$GPGSA,A,3,05,09,12,15,17,18,21,24,26,28,,,2.5,1.4,2.1*3C
$GPRMC,124453.00,A,4230.201653,N,00525.045617,W,045.1,109.7,040513,,,A*40
$GPGGA,124454.00,4230.197653,N,00525.029479,W,1,08,0.5,801.3,M,52.0,M,,*75
$GPGSA,A,3,05,09,12,15,17,18,21,24,26,28,,,1.9,1.0,1.6*33
$GPRMC,124454.00,A,4230.197653,N,00525.029479,W,045.2,108.4,040513,,,A*4A
$GPGGA,124455.00,4230.193724,N,00525.013251,W,1,08,0.5,801.3,M,52.0,M,,*74
$GPGSA,A,3,05,09,12,15,17,18,21,24,26,28,,,1.9,1.0,1.6*33
$GPRMC,124455.00,A,4230.193724,N,00525.013251,W,045.3,108.3,040513,,,A*4D
$GPGGA,124456.00,4230.189909,N,00524.996919,W,1,08,0.5,801.2,M,52.0,M,,*7E
$GPGSA,A,3,05,09,12,15,17,18,21,24,26,28,,,1.9,1.0,1.6*33
$GPRMC,124456.00,A,4230.189909,N,00524.996919,W,045.4,107.8,040513,,,A*45
$GPGGA,124457.00,4230.186119,N,00524.980512,W,1,08,1.0,801.0,M,52.0,M,,*7F
$GPGSA,A,3,05,09,12,15,17,18,21,24,26,28,,,1.7,1.1,1.3*39
$GPRMC,124457.00,A,4230.186119,N,00524.980512,W,045.5,107.7,040513,,,A*4C
$GPGGA,124458.00,4230.182357,N,00524.964024,W,1,08,0.5,800.9,M,52.0,M,,*7A
$GPGSA,A,3,05,09,12,15,17,18,21,24,26,28,,,1.9,1.0,1.6*33
$GPRMC,124458.00,A,4230.182357,N,00524.964024,W,045.6,107.5,040513,,,A*44
$GPGGA,124459.00,4230.178536,N,00524.947436,W,1,08,0.5,800.8,M,52.0,M,,*78
$GPGSA,A,3,05,09,12,15,17,18,21,24,26,28,,,1.9,1.0,1.6*33
$GPRMC,124459.00,A,4230.178536,N,00524.947436,W,045.8,108.0,040513,,,A*43
$GPGGA,124500.00,4230.174643,N,00524.930878,W,1,08,0.5,800.6,M,52.0,M,,*70
$GPGSA,A,3,05,09,12,15,17,18,21,24,26,28,,,1.9,1.0,1.6*33
$GPRMC,124500.00,A,4230.174643,N,00524.930878,W,045.9,108.4,040513,,,A*40
$GPGGA,124501.00,4230.170442,N,00524.914525,W,1,08,0.5,800.2,M,52.0,M,,*71
$GPGSA,A,3,05,09,12,15,17,18,24,26,28,,,,1.9,1.0,1.6*30
$GPRMC,124501.00,A,4230.170442,N,00524.914525,W,045.9,109.6,040513,,,A*46
$GPGGA,124502.00,4230.165795,N,00524.898333,W,1,08,1.0,799.8,M,52.0,M,,*7A
$GPGSA,A,3,05,09,12,15,17,18,24,26,28,,,,1.9,1.0,1.6*30
$GPRMC,124502.00,A,4230.165795,N,00524.898333,W,046.1,111.4,040513,,,A*4C
$GPGGA,124503.00,4230.160787,N,00524.882178,W,1,08,1.0,799.6,M,52.0,M,,*75
$GPGSA,A,3,05,09,12,15,17,18,24,26,28,,,,1.9,1.0,1.6*30
$GPRMC,124503.00,A,4230.160787,N,00524.882178,W,046.2,112.5,040513,,,A*4C
$GPGGA,124504.00,4230.155341,N,00524.866136,W,1,08,0.5,799.4,M,52.0,M,,*7C
$GPGSA,A,3,05,09,12,15,17,18,24,26,28,,,,1.9,1.0,1.6*30
$GPRMC,124504.00,A,4230.155341,N,00524.866136,W,046.3,113.8,040513,,,A*4E
$GPGGA,124505.00,4230.149571,N,00524.850137,W,1,08,0.5,799.6,M,52.0,M,,*73
$GPGSA,A,3,05,09,12,15,17,18,24,26,28,,,,1.9,1.0,1.6*30
$GPRMC,124505.00,A,4230.149571,N,00524.850137,W,046.4,115.2,040513,,,A*48
$GPGGA,124506.00,4230.143386,N,00524.834373,W,1,08,0.5,799.8,M,52.0,M,,*7A
$GPGSA,A,3,05,09,12,15,17,18,24,26,28,,,,1.8,1.0,1.5*32
$GPRMC,124506.00,A,4230.143386,N,00524.834373,W,046.4,117.0,040513,,,A*4F
$GPGGA,124507.00,4230.137275,N,00524.818928,W,1,08,0.5,800.1,M,52.0,M,,*79
$GPGSA,A,3,09,12,15,17,18,24,26,28,,,,,1.8,1.0,1.5*37
$GPRMC,124507.00,A,4230.137275,N,00524.818928,W,046.1,117.5,040513,,,A*4A
$GPGGA,124508.00,4230.130957,N,00524.803960,W,1,08,0.5,800.3,M,52.0,M,,*7E
$GPGSA,A,3,05,09,12,15,17,18,24,26,28,,,,2.5,1.4,2.1*3F
$GPRMC,124508.00,A,4230.130957,N,00524.803960,W,045.6,118.8,040513,,,A*49
$GPGGA,124509.00,4230.124557,N,00524.789327,W,1,08,0.5,800.6,M,52.0,M,,*77
$GPGSA,A,3,05,09,12,15,17,18,24,26,28,,,,2.5,1.4,2.1*3F
$GPRMC,124509.00,A,4230.124557,N,00524.789327,W,045.2,120.1,040513,,,A*43
$GPGGA,124510.00,4230.118057,N,00524.775023,W,1,08,0.5,800.8,M,52.0,M,,*7F
$GPGSA,A,3,05,09,12,15,17,18,24,26,28,,,,2.5,1.4,2.1*3F
$GPRMC,124510.00,A,4230.118057,N,00524.775023,W,044.9,121.6,040513,,,A*49
$GPGGA,124511.00,4230.111622,N,00524.760936,W,1,08,0.5,801.1,M,52.0,M,,*72
$GPGSA,A,3,05,09,12,15,17,18,24,26,28,,,,2.5,1.4,2.1*3F
$GPRMC,124511.00,A,4230.111622,N,00524.760936,W,044.5,122.5,040513,,,A*40
$GPGGA,124512.00,4230.104867,N,00524.747256,W,1,08,0.5,801.3,M,52.0,M,,*70
$GPGSA,A,3,05,09,12,15,17,18,24,26,28,,,,2.5,1.4,2.1*3F
$GPRMC,124512.00,A,4230.104867,N,00524.747256,W,044.2,123.9,040513,,,A*4A
$GPGGA,124513.00,4230.097927,N,00524.733961,W,1,08,0.5,801.4,M,52.0,M,,*74
$GPGSA,A,3,05,09,12,15,17,18,24,26,28,,,,2.5,1.4,2.1*3F
$GPRMC,124513.00,A,4230.097927,N,00524.733961,W,043.7,125.4,040513,,,A*40
$GPGGA,124514.00,4230.090882,N,00524.721005,W,1,08,0.5,801.6,M,52.0,M,,*70
$GPGSA,A,3,05,09,12,15,17,18,24,26,28,,,,2.5,1.4,2.1*3F
$GPRMC,124514.00,A,4230.090882,N,00524.721005,W,043.1,126.6,040513,,,A*41
$GPGGA,124515.00,4230.083601,N,00524.708440,W,1,08,0.5,801.7,M,52.0,M,,*79
$GPGSA,A,3,05,09,12,15,17,18,24,26,28,,,,2.5,1.4,2.1*3F
$GPRMC,124515.00,A,4230.083601,N,00524.708440,W,042.7,128.4,040513,,,A*42
$GPGGA,124516.00,4230.076101,N,00524.696283,W,1,10,0.5,801.8,M,52.0,M,,*7E
$GPGSA,A,3,05,08,09,12,15,17,18,24,26,28,,,2.5,1.4,2.1*37
$GPRMC,124516.00,A,4230.076101,N,00524.696283,W,042.2,130.2,040513,,,A*49
$GPGGA,124517.00,4230.068595,N,00524.684356,W,1,09,0.5,802.0,M,52.0,M,,*70
$GPGSA,A,3,05,08,09,12,15,17,18,24,26,28,,,2.0,1.2,1.6*30
$GPRMC,124517.00,A,4230.068595,N,00524.684356,W,041.7,131.1,040513,,,A*40
$GPGGA,124518.00,4230.060925,N,00524.672741,W,1,10,0.5,802.1,M,52.0,M,,*72
$GPGSA,A,3,05,08,09,12,15,17,18,24,26,28,,,2.5,1.4,2.1*37
$GPRMC,124518.00,A,4230.060925,N,00524.672741,W,041.4,131.5,040513,,,A*4C
$GPGGA,124519.00,4230.053305,N,00524.661254,W,1,09,0.5,802.4,M,52.0,M,,*75
$GPGSA,A,3,05,08,09,12,15,17,18,24,26,28,,,2.5,1.4,2.1*37
$GPRMC,124519.00,A,4230.053305,N,00524.661254,W,041.1,132.4,040513,,,A*41
$GPGGA,124520.00,4230.045506,N,00524.650127,W,1,09,0.5,802.5,M,52.0,M,,*79
$GPGSA,A,3,05,08,09,12,15,17,18,24,26,28,,,2.5,1.4,2.1*37
$GPRMC,124520.00,A,4230.045506,N,00524.650127,W,040.9,133.3,040513,,,A*43
$GPGGA,124521.00,4230.037627,N,00524.639292,W,1,09,0.5,802.8,M,52.0,M,,*72
$GPGSA,A,3,05,08,09,12,15,17,18,24,26,28,,,2.5,1.4,2.1*37
$GPRMC,124521.00,A,4230.037627,N,00524.639292,W,040.5,134.4,040513,,,A*49
$GPGGA,124522.00,4230.029579,N,00524.628802,W,1,09,0.5,803.1,M,52.0,M,,*7D
$GPGSA,A,3,05,08,09,12,15,17,18,24,26,28,,,2.5,1.4,2.1*37
$GPRMC,124522.00,A,4230.029579,N,00524.628802,W,040.3,136.0,040513,,,A*4E
$GPGGA,124523.00,4230.021383,N,00524.618600,W,1,09,0.5,803.4,M,52.0,M,,*7D
$GPGSA,A,3,05,08,09,12,15,17,18,24,26,28,,,1.8,1.2,1.4*39
$GPRMC,124523.00,A,4230.021383,N,00524.618600,W,040.2,137.8,040513,,,A*43
$GPGGA,124524.00,4230.013004,N,00524.608708,W,1,09,0.5,803.7,M,52.0,M,,*7C
$GPGSA,A,3,05,08,09,12,15,17,18,24,26,28,,,1.8,1.2,1.4*39
$GPRMC,124524.00,A,4230.013004,N,00524.608708,W,040.1,139.4,040513,,,A*40
$GPGGA,124525.00,4230.004483,N,00524.598994,W,1,09,0.5,803.9,M,52.0,M,,*7F
$GPGSA,A,3,05,08,09,12,15,17,18,24,26,28,,,2.5,1.4,2.1*37
$GPRMC,124525.00,A,4230.004483,N,00524.598994,W,040.1,140.4,040513,,,A*43
$GPGGA,124526.00,4229.995758,N,00524.589600,W,1,09,0.5,804.0,M,52.0,M,,*7C
$GPGSA,A,3,05,08,09,12,15,17,18,24,26,28,,,2.5,1.4,2.1*37
$GPRMC,124526.00,A,4229.995758,N,00524.589600,W,040.2,140.8,040513,,,A*41
$GPGGA,124527.00,4229.986985,N,00524.580228,W,1,08,0.5,804.1,M,52.0,M,,*76
$GPGSA,A,3,05,08,09,12,15,17,18,24,26,28,,,2.5,1.4,2.1*37
$GPRMC,124527.00,A,4229.986985,N,00524.580228,W,040.2,141.5,040513,,,A*47
$GPGGA,124528.00,4229.977992,N,00524.571127,W,1,08,0.5,804.3,M,52.0,M,,*71
$GPGSA,A,3,05,08,09,12,15,17,18,24,26,28,,,2.5,1.4,2.1*37
$GPRMC,124528.00,A,4229.977992,N,00524.571127,W,040.4,142.6,040513,,,A*44
$GPGGA,124529.00,4229.968841,N,00524.562302,W,1,09,0.5,804.5,M,52.0,M,,*71
$GPGSA,A,3,05,08,09,12,15,17,18,24,26,28,,,2.5,1.4,2.1*37
$GPRMC,124529.00,A,4229.968841,N,00524.562302,W,040.4,144.0,040513,,,A*43
$GPGGA,124530.00,4229.959511,N,00524.553763,W,1,08,0.5,804.7,M,52.0,M,,*71
$GPGSA,A,3,05,08,09,12,15,17,18,24,26,28,,,2.5,1.4,2.1*37
$GPRMC,124530.00,A,4229.959511,N,00524.553763,W,040.5,145.7,040513,,,A*47
$GPGGA,124531.00,4229.949945,N,00524.545668,W,1,08,0.5,804.9,M,52.0,M,,*7F
$GPGSA,A,3,05,08,09,12,15,17,18,24,26,28,,,2.5,1.4,2.1*37
$GPRMC,124531.00,A,4229.949945,N,00524.545668,W,040.5,147.9,040513,,,A*4B
$GPGGA,124532.00,4229.940187,N,00524.537979,W,1,08,0.5,805.1,M,52.0,M,,*70
$GPGSA,A,3,05,08,09,12,15,17,18,24,26,28,,,2.5,1.4,2.1*37
$GPRMC,124532.00,A,4229.940187,N,00524.537979,W,040.5,149.7,040513,,,A*4D
$GPGGA,124533.00,4229.930276,N,00524.530580,W,1,08,0.5,805.3,M,52.0,M,,*74
$GPGSA,A,3,05,08,09,12,15,17,18,24,26,28,,,2.5,1.4,2.1*37
$GPRMC,124533.00,A,4229.930276,N,00524.530580,W,040.5,150.8,040513,,,A*4C
$GPGGA,124534.00,4229.920306,N,00524.523302,W,1,08,0.5,805.4,M,52.0,M,,*7D
$GPGSA,A,3,05,08,09,12,15,17,18,24,26,28,,,2.5,1.4,2.1*37
$GPRMC,124534.00,A,4229.920306,N,00524.523302,W,040.5,151.6,040513,,,A*4D
$GPGGA,124535.00,4229.910194,N,00524.516381,W,1,08,0.5,805.5,M,52.0,M,,*7A
$GPGSA,A,3,05,08,09,12,15,17,18,24,26,28,,,2.5,1.4,2.1*37
$GPRMC,124535.00,A,4229.910194,N,00524.516381,W,040.5,152.4,040513,,,A*4A
$GPGGA,124536.00,4229.900065,N,00524.509499,W,1,08,0.5,805.5,M,52.0,M,,*77
$GPGSA,A,3,05,08,09,12,15,17,18,24,26,28,,,2.5,1.4,2.1*37
$GPRMC,124536.00,A,4229.900065,N,00524.509499,W,040.5,153.1,040513,,,A*43
$GPGGA,124537.00,4229.889801,N,00524.502833,W,1,08,0.5,805.6,M,52.0,M,,*78
$GPGSA,A,3,05,08,09,12,15,17,24,26,28,,,,2.5,1.4,2.1*3E
$GPRMC,124537.00,A,4229.889801,N,00524.502833,W,040.6,153.7,040513,,,A*4A
$GPGGA,124538.00,4229.879463,N,00524.496307,W,1,08,0.5,805.6,M,52.0,M,,*70
$GPGSA,A,3,05,08,09,12,15,17,18,24,26,28,,,2.5,1.4,2.1*37
$GPRMC,124538.00,A,4229.879463,N,00524.496307,W,040.7,154.7,040513,,,A*44
$GPGGA,124539.00,4229.869000,N,00524.489996,W,1,08,0.5,805.7,M,52.0,M,,*7C
$GPGSA,A,3,05,08,09,12,15,17,18,24,26,28,,,2.5,1.4,2.1*37
$GPRMC,124539.00,A,4229.869000,N,00524.489996,W,040.9,156.0,040513,,,A*42
$GPGGA,124540.00,4229.858327,N,00524.484032,W,1,08,0.5,805.7,M,52.0,M,,*7C
$GPGSA,A,3,05,08,09,12,15,17,18,24,26,28,,,2.5,1.4,2.1*37
$GPRMC,124540.00,A,4229.858327,N,00524.484032,W,041.1,157.5,040513,,,A*4F
$GPGGA,124541.00,4229.847512,N,00524.478319,W,1,09,0.5,805.7,M,52.0,M,,*7B
$GPGSA,A,3,05,08,09,12,15,17,18,24,26,28,,,1.9,1.0,1.5*3B
$GPRMC,124541.00,A,4229.847512,N,00524.478319,W,041.4,158.8,040513,,,A*4E
$GPGGA,124542.00,4229.836510,N,00524.472893,W,1,08,0.5,805.7,M,52.0,M,,*7E
$GPGSA,A,3,05,08,09,12,15,17,18,24,26,28,,,1.9,1.0,1.5*3B
$GPRMC,124542.00,A,4229.836510,N,00524.472893,W,041.5,160.3,040513,,,A*4B
$GPGGA,124543.00,4229.825307,N,00524.467749,W,1,08,0.5,805.7,M,52.0,M,,*71
$GPGSA,A,3,05,08,09,12,15,17,18,24,26,28,,,1.9,1.0,1.5*3B
$GPRMC,124543.00,A,4229.825307,N,00524.467749,W,041.8,161.7,040513,,,A*4C
$GPGGA,124544.00,4229.813950,N,00524.462943,W,1,08,0.5,805.7,M,52.0,M,,*7A
$GPGSA,A,3,05,08,09,12,15,17,18,24,26,28,,,1.9,1.0,1.5*3B
$GPRMC,124544.00,A,4229.813950,N,00524.462943,W,041.9,163.0,040513,,,A*43
$GPGGA,124545.00,4229.802549,N,00524.458270,W,1,08,0.5,805.7,M,52.0,M,,*7D
$GPGSA,A,3,05,08,09,12,15,17,18,24,26,28,,,1.9,1.0,1.5*3B
$GPRMC,124545.00,A,4229.802549,N,00524.458270,W,042.0,163.9,040513,,,A*47
$GPGGA,124546.00,4229.791066,N,00524.454126,W,1,09,0.5,805.8,M,52.0,M,,*71
$GPGSA,A,3,05,08,09,12,15,17,18,24,26,28,,,1.9,1.0,1.5*3B
$GPRMC,124546.00,A,4229.791066,N,00524.454126,W,042.1,165.0,040513,,,A*4B
$GPGGA,124547.00,4229.779574,N,00524.450292,W,1,09,0.5,805.9,M,52.0,M,,*79
$GPGSA,A,3,05,08,09,12,15,17,18,24,26,28,,,1.9,1.0,1.5*3B
$GPRMC,124547.00,A,4229.779574,N,00524.450292,W,042.1,166.1,040513,,,A*40
$GPGGA,124548.00,4229.768046,N,00524.446897,W,1,10,0.5,806.0,M,52.0,M,,*78
$GPGSA,A,3,05,08,09,12,15,17,18,24,26,28,,,1.9,1.0,1.5*3B
$GPRMC,124548.00,A,4229.768046,N,00524.446897,W,042.2,167.7,040513,,,A*47
$GPGGA,124549.00,4229.756502,N,00524.443857,W,1,09,0.5,806.0,M,52.0,M,,*70
$GPGSA,A,3,05,08,09,12,15,17,18,24,26,28,,,1.9,1.0,1.5*3B
$GPRMC,124549.00,A,4229.756502,N,00524.443857,W,042.2,168.9,040513,,,A*46
$GPGGA,124550.00,4229.744898,N,00524.441215,W,1,08,0.5,805.9,M,52.0,M,,*70
$GPGSA,A,3,05,08,09,12,15,17,18,24,26,28,,,2.1,1.0,1.8*3D
$GPRMC,124550.00,A,4229.744898,N,00524.441215,W,042.2,170.3,040513,,,A*4E
$GPGGA,124551.00,4229.733241,N,00524.438896,W,1,08,0.5,805.8,M,52.0,M,,*71
$GPGSA,A,3,05,08,09,12,15,17,18,24,26,28,,,2.1,1.0,1.8*3D
$GPRMC,124551.00,A,4229.733241,N,00524.438896,W,042.2,171.4,040513,,,A*48
$GPGGA,124552.00,4229.721569,N,00524.436861,W,1,08,0.5,805.8,M,52.0,M,,*7A
$GPGSA,A,3,05,08,09,12,15,17,18,24,26,28,,,2.1,1.0,1.8*3D
$GPRMC,124552.00,A,4229.721569,N,00524.436861,W,042.2,172.5,040513,,,A*41
$GPGGA,124553.00,4229.709875,N,00524.435171,W,1,08,0.5,805.7,M,52.0,M,,*75
$GPGSA,A,3,05,08,09,12,15,17,18,24,26,28,,,2.1,1.0,1.8*3D
$GPRMC,124553.00,A,4229.709875,N,00524.435171,W,042.1,173.6,040513,,,A*40
$GPGGA,124554.00,4229.698156,N,00524.433918,W,1,08,0.5,805.7,M,52.0,M,,*72
$GPGSA,A,3,05,08,09,12,15,17,18,24,26,28,,,2.1,1.0,1.8*3D
$GPRMC,124554.00,A,4229.698156,N,00524.433918,W,042.1,175.3,040513,,,A*44
$GPGGA,124555.00,4229.686442,N,00524.433136,W,1,08,0.5,805.7,M,52.0,M,,*78
$GPGSA,A,3,05,08,09,12,15,17,18,24,26,28,,,2.1,1.0,1.8*3D
$GPRMC,124555.00,A,4229.686442,N,00524.433136,W,042.1,177.0,040513,,,A*4F
$GPGGA,124556.00,4229.674742,N,00524.432798,W,1,08,0.5,805.6,M,52.0,M,,*77
$GPGSA,A,3,05,08,09,12,15,17,18,24,26,28,,,2.1,1.0,1.8*3D
$GPRMC,124556.00,A,4229.674742,N,00524.432798,W,042.0,178.5,040513,,,A*4A
$GPGGA,124557.00,4229.663070,N,00524.432872,W,1,08,0.5,805.5,M,52.0,M,,*7E
$GPGSA,A,3,05,08,09,12,15,17,18,24,26,28,,,2.1,1.0,1.8*3D
$GPRMC,124557.00,A,4229.663070,N,00524.432872,W,042.0,180.1,040513,,,A*43
$GPGGA,124558.00,4229.651377,N,00524.432980,W,1,08,0.5,805.5,M,52.0,M,,*78
$GPGSA,A,3,05,08,09,12,15,17,18,24,26,28,,,2.1,1.0,1.8*3D
$GPRMC,124558.00,A,4229.651377,N,00524.432980,W,042.0,180.7,040513,,,A*43
$GPGGA,124559.00,4229.639640,N,00524.433445,W,1,08,0.5,805.5,M,52.0,M,,*73
$GPGSA,A,3,05,09,12,15,17,18,24,26,28,,,,2.1,1.0,1.8*35
$GPRMC,124559.00,A,4229.639640,N,00524.433445,W,042.1,181.6,040513,,,A*49
$GPGGA,124600.00,4229.627823,N,00524.434074,W,1,08,0.5,805.8,M,52.0,M,,*74
$GPGSA,A,3,05,08,09,12,15,17,18,24,26,28,,,2.1,1.0,1.8*3D
$GPRMC,124600.00,A,4229.627823,N,00524.434074,W,042.3,182.4,040513,,,A*40
$GPGGA,124601.00,4229.615946,N,00524.435397,W,1,08,0.5,806.0,M,52.0,M,,*72
$GPGSA,A,3,05,08,09,12,15,17,18,24,26,28,,,2.1,1.0,1.8*3D
$GPRMC,124601.00,A,4229.615946,N,00524.435397,W,042.5,183.8,040513,,,A*46
$GPGGA,124602.00,4229.604012,N,00524.437124,W,1,08,0.5,806.0,M,52.0,M,,*71
$GPGSA,A,3,05,08,09,12,15,17,18,24,26,28,,,2.1,1.0,1.8*3D
$GPRMC,124602.00,A,4229.604012,N,00524.437124,W,042.7,185.2,040513,,,A*4B
$GPGGA,124603.00,4229.592042,N,00524.439208,W,1,08,0.5,806.1,M,52.0,M,,*7B
$GPGSA,A,3,05,08,09,12,15,17,18,24,26,28,,,2.1,1.0,1.8*3D
$GPRMC,124603.00,A,4229.592042,N,00524.439208,W,042.9,186.4,040513,,,A*4B
$GPGGA,124604.00,4229.580067,N,00524.441633,W,1,08,0.5,806.1,M,52.0,M,,*7B
$GPGSA,A,3,05,08,09,12,15,17,18,24,26,28,,,2.1,1.0,1.8*3D
$GPRMC,124604.00,A,4229.580067,N,00524.441633,W,043.0,187.8,040513,,,A*4E
$GPGGA,124605.00,4229.568078,N,00524.444134,W,1,08,0.5,806.1,M,52.0,M,,*77
$GPGSA,A,3,05,08,09,12,15,17,18,24,26,28,,,2.1,1.0,1.8*3D
$GPRMC,124605.00,A,4229.568078,N,00524.444134,W,043.2,188.6,040513,,,A*41
$GPGGA,124606.00,4229.556107,N,00524.446969,W,1,08,0.5,806.0,M,52.0,M,,*73
$GPGSA,A,3,05,08,09,12,15,17,18,24,26,28,,,2.1,1.0,1.8*3D
$GPRMC,124606.00,A,4229.556107,N,00524.446969,W,043.3,189.2,040513,,,A*40
$GPGGA,124607.00,4229.544120,N,00524.449786,W,1,08,0.5,806.0,M,52.0,M,,*74
$GPGSA,A,3,05,08,09,12,15,17,18,24,26,28,,,2.1,1.0,1.8*3D
$GPRMC,124607.00,A,4229.544120,N,00524.449786,W,043.5,189.3,040513,,,A*40
$GPGGA,124608.00,4229.532106,N,00524.452585,W,1,08,0.5,806.0,M,52.0,M,,*75
$GPGSA,A,3,05,08,09,12,15,17,18,24,26,28,,,2.1,1.0,1.8*3D
$GPRMC,124608.00,A,4229.532106,N,00524.452585,W,043.6,189.1,040513,,,A*40
$GPGGA,124609.00,4229.520074,N,00524.455347,W,1,08,0.5,806.1,M,52.0,M,,*7D
$GPGSA,A,3,05,08,09,12,15,17,18,24,26,28,,,2.1,1.0,1.8*3D
$GPRMC,124609.00,A,4229.520074,N,00524.455347,W,043.7,189.0,040513,,,A*49
$GPGGA,124610.00,4229.508050,N,00524.458068,W,1,08,0.5,806.2,M,52.0,M,,*79
$GPGSA,A,3,05,08,09,12,15,17,18,24,26,28,,,2.1,1.0,1.8*3D
$GPRMC,124610.00,A,4229.508050,N,00524.458068,W,043.7,189.1,040513,,,A*4F
$GPGGA,124611.00,4229.496079,N,00524.460851,W,1,08,0.5,806.2,M,52.0,M,,*7C
$GPGSA,A,3,05,08,09,12,15,17,18,24,26,28,,,2.1,1.0,1.8*3D
$GPRMC,124611.00,A,4229.496079,N,00524.460851,W,043.6,190.0,040513,,,A*42
$GPGGA,124612.00,4229.484132,N,00524.463645,W,1,09,0.5,806.1,M,52.0,M,,*78
$GPGSA,A,3,05,08,09,12,15,17,18,24,26,28,,,2.5,1.4,2.1*37
$GPRMC,124612.00,A,4229.484132,N,00524.463645,W,043.4,190.0,040513,,,A*46
$GPGGA,124613.00,4229.472214,N,00524.466470,W,1,09,0.5,806.0,M,52.0,M,,*77
$GPGSA,A,3,05,08,09,12,15,17,18,24,26,28,,,2.5,1.4,2.1*37
$GPRMC,124613.00,A,4229.472214,N,00524.466470,W,043.3,190.0,040513,,,A*4F
$GPGGA,124614.00,4229.460370,N,00524.469342,W,1,08,0.5,806.0,M,52.0,M,,*78
$GPGSA,A,3,05,08,09,12,15,17,18,24,26,28,,,2.1,1.0,1.8*3D
$GPRMC,124614.00,A,4229.460370,N,00524.469342,W,043.1,189.9,040513,,,A*42
$GPGGA,124615.00,4229.448597,N,00524.472220,W,1,08,0.5,806.0,M,52.0,M,,*73
$GPGSA,A,3,05,08,09,12,15,17,18,24,26,28,,,2.1,1.0,1.8*3D
$GPRMC,124615.00,A,4229.448597,N,00524.472220,W,042.9,189.8,040513,,,A*41
$GPGGA,124616.00,4229.436922,N,00524.475064,W,1,08,0.5,806.1,M,52.0,M,,*7F
$GPGSA,A,3,05,08,09,12,15,17,18,24,26,28,,,2.1,1.0,1.8*3D
$GPRMC,124616.00,A,4229.436922,N,00524.475064,W,042.6,189.5,040513,,,A*4E
$GPGGA,124617.00,4229.425323,N,00524.477819,W,1,08,0.5,806.1,M,52.0,M,,*77
$GPGSA,A,3,05,09,12,15,17,18,24,26,28,,,,2.1,1.0,1.8*35
$GPRMC,124617.00,A,4229.425323,N,00524.477819,W,042.4,188.5,040513,,,A*45
$GPGGA,124618.00,4229.413730,N,00524.480092,W,1,09,0.5,805.8,M,52.0,M,,*73
$GPGSA,A,3,05,09,12,15,17,18,24,26,28,,,,1.8,1.0,1.5*32
$GPRMC,124618.00,A,4229.413730,N,00524.480092,W,042.2,187.3,040513,,,A*45
$GPGGA,124619.00,4229.402168,N,00524.482209,W,1,09,0.5,805.5,M,52.0,M,,*76
$GPGSA,A,3,05,09,12,15,17,18,24,26,28,,,,1.8,1.0,1.5*32
$GPRMC,124619.00,A,4229.402168,N,00524.482209,W,041.9,186.5,040513,,,A*42
$GPGGA,124620.00,4229.390600,N,00524.483936,W,1,09,0.5,805.2,M,52.0,M,,*78
$GPGSA,A,3,05,08,09,12,15,17,18,24,26,28,,,1.8,1.0,1.5*3A
$GPRMC,124620.00,A,4229.390600,N,00524.483936,W,041.7,185.9,040513,,,A*4A
$GPGGA,124621.00,4229.379034,N,00524.485614,W,1,09,0.5,804.9,M,52.0,M,,*7C
$GPGSA,A,3,05,08,09,12,15,17,18,24,26,28,,,1.8,1.0,1.5*3A
$GPRMC,124621.00,A,4229.379034,N,00524.485614,W,041.7,185.4,040513,,,A*49
$GPGGA,124622.00,4229.367417,N,00524.486971,W,1,09,0.5,804.7,M,52.0,M,,*74
$GPGSA,A,3,05,08,09,12,15,17,18,24,26,28,,,1.8,1.0,1.5*3A
$GPRMC,124622.00,A,4229.367417,N,00524.486971,W,041.7,184.6,040513,,,A*4C
$GPGGA,124623.00,4229.355752,N,00524.488025,W,1,09,0.5,804.4,M,52.0,M,,*73
$GPGSA,A,3,05,08,09,12,15,17,18,24,26,28,,,1.8,1.0,1.5*3A
$GPRMC,124623.00,A,4229.355752,N,00524.488025,W,041.8,183.4,040513,,,A*42
$GPGGA,124624.00,4229.344068,N,00524.488712,W,1,08,0.5,804.5,M,52.0,M,,*79
$GPGSA,A,3,05,08,09,12,15,17,18,24,26,28,,,2.1,1.0,1.8*3D
$GPRMC,124624.00,A,4229.344068,N,00524.488712,W,041.9,182.2,040513,,,A*4E
$GPGGA,124625.00,4229.332360,N,00524.489074,W,1,08,0.5,804.7,M,52.0,M,,*76
$GPGSA,A,3,05,08,09,12,15,17,18,24,26,28,,,2.1,1.0,1.8*3D
$GPRMC,124625.00,A,4229.332360,N,00524.489074,W,042.0,181.2,040513,,,A*4A
$GPGGA,124626.00,4229.320647,N,00524.489031,W,1,08,0.5,804.8,M,52.0,M,,*78
$GPGSA,A,3,05,08,09,12,15,17,18,24,26,28,,,2.1,1.0,1.8*3D
$GPRMC,124626.00,A,4229.320647,N,00524.489031,W,042.0,179.8,040513,,,A*46
$GPGGA,124627.00,4229.308939,N,00524.488535,W,1,08,0.5,804.8,M,52.0,M,,*75
$GPGSA,A,3,05,08,09,12,15,17,18,24,26,28,,,2.1,1.0,1.8*3D
$GPRMC,124627.00,A,4229.308939,N,00524.488535,W,042.0,178.4,040513,,,A*46
$GPGGA,124628.00,4229.297248,N,00524.487661,W,1,08,0.5,804.7,M,52.0,M,,*72
$GPGSA,A,3,05,08,09,12,15,17,18,24,26,28,,,2.1,1.0,1.8*3D
$GPRMC,124628.00,A,4229.297248,N,00524.487661,W,042.1,177.2,040513,,,A*46
$GPGGA,124629.00,4229.285577,N,00524.486299,W,1,08,0.5,804.7,M,52.0,M,,*79
$GPGSA,A,3,05,09,12,15,17,18,24,26,28,,,,2.1,1.0,1.8*35
$GPRMC,124629.00,A,4229.285577,N,00524.486299,W,042.1,175.4,040513,,,A*49
$GPGGA,124630.00,4229.273912,N,00524.484599,W,1,08,0.5,804.6,M,52.0,M,,*73
$GPGSA,A,3,05,09,12,15,17,18,24,26,28,,,,2.1,1.0,1.8*35
$GPRMC,124630.00,A,4229.273912,N,00524.484599,W,042.2,174.2,040513,,,A*46
$GPGGA,124631.00,4229.262270,N,00524.482562,W,1,08,0.5,804.6,M,52.0,M,,*7F
$GPGSA,A,3,05,08,09,12,15,17,18,24,26,28,,,2.1,1.0,1.8*3D
$GPRMC,124631.00,A,4229.262270,N,00524.482562,W,042.2,173.0,040513,,,A*4F
$GPGGA,124632.00,4229.250662,N,00524.480176,W,1,08,0.5,804.5,M,52.0,M,,*7A
$GPGSA,A,3,05,08,09,12,15,17,18,24,26,28,,,2.1,1.0,1.8*3D
$GPRMC,124632.00,A,4229.250662,N,00524.480176,W,042.2,171.8,040513,,,A*43
$GPGGA,124633.00,4229.239066,N,00524.477688,W,1,09,0.5,804.5,M,52.0,M,,*79
$GPGSA,A,3,05,08,09,12,15,17,18,24,26,28,,,2.1,1.0,1.8*3D
$GPRMC,124633.00,A,4229.239066,N,00524.477688,W,042.2,171.2,040513,,,A*4B
$GPGGA,124634.00,4229.227514,N,00524.474895,W,1,09,0.5,804.5,M,52.0,M,,*70
$GPGSA,A,3,05,08,09,12,15,17,18,24,26,28,,,2.1,1.0,1.8*3D
$GPRMC,124634.00,A,4229.227514,N,00524.474895,W,042.2,170.5,040513,,,A*44
$GPGGA,124635.00,4229.215990,N,00524.472057,W,1,09,0.5,804.5,M,52.0,M,,*70
$GPGSA,A,3,05,08,09,12,15,17,18,24,26,28,,,1.6,0.9,1.4*3D
$GPRMC,124635.00,A,4229.215990,N,00524.472057,W,042.1,170.0,040513,,,A*42
$GPGGA,124636.00,4229.204539,N,00524.468958,W,1,09,0.5,804.5,M,52.0,M,,*71
$GPGSA,A,3,05,08,09,12,15,17,18,24,26,28,,,1.6,0.9,1.4*3D
$GPRMC,124636.00,A,4229.204539,N,00524.468958,W,042.0,169.3,040513,,,A*49
$GPGGA,124637.00,4229.193196,N,00524.465577,W,1,09,0.5,804.5,M,52.0,M,,*70
$GPGSA,A,3,05,08,09,12,15,17,18,24,26,28,,,1.6,0.9,1.4*3D
$GPRMC,124637.00,A,4229.193196,N,00524.465577,W,041.8,167.9,040513,,,A*47
$GPGGA,124638.00,4229.182040,N,00524.461879,W,1,08,0.5,804.4,M,52.0,M,,*72
$GPGSA,A,3,05,08,09,12,15,17,18,24,26,28,,,1.6,0.9,1.4*3D
$GPRMC,124638.00,A,4229.182040,N,00524.461879,W,041.5,166.5,040513,,,A*45
$GPGGA,124639.00,4229.171082,N,00524.457565,W,1,08,0.5,804.4,M,52.0,M,,*74
$GPGSA,A,3,05,08,09,12,15,17,18,24,26,28,,,1.6,0.9,1.4*3D
$GPRMC,124639.00,A,4229.171082,N,00524.457565,W,041.3,163.7,040513,,,A*42
$GPGGA,124640.00,4229.160263,N,00524.452647,W,1,08,0.5,804.5,M,52.0,M,,*70
$GPGSA,A,3,05,08,09,12,15,17,18,24,26,28,,,1.6,0.9,1.4*3D
$GPRMC,124640.00,A,4229.160263,N,00524.452647,W,041.3,161.3,040513,,,A*41
$GPGGA,124641.00,4229.149524,N,00524.447298,W,1,10,0.5,804.4,M,52.0,M,,*74
$GPGSA,A,3,05,08,09,12,15,17,18,24,26,28,,,1.9,1.0,1.6*38
$GPRMC,124641.00,A,4229.149524,N,00524.447298,W,041.3,159.7,040513,,,A*42
$GPGGA,124642.00,4229.138835,N,00524.441557,W,1,09,0.5,804.5,M,52.0,M,,*77
$GPGSA,A,3,05,08,09,12,15,17,18,24,26,28,,,2.5,1.4,2.1*37
$GPRMC,124642.00,A,4229.138835,N,00524.441557,W,041.5,158.2,040513,,,A*4A
$GPGGA,124643.00,4229.128183,N,00524.435437,W,1,09,0.5,804.5,M,52.0,M,,*77
$GPGSA,A,3,05,08,09,12,15,17,18,24,26,28,,,2.5,1.4,2.1*37
$GPRMC,124643.00,A,4229.128183,N,00524.435437,W,041.7,156.8,040513,,,A*4C
$GPGGA,124644.00,4229.117563,N,00524.429012,W,1,09,0.5,804.6,M,52.0,M,,*7B
$GPGSA,A,3,05,08,09,12,15,17,18,24,26,28,,,2.5,1.4,2.1*37
$GPRMC,124644.00,A,4229.117563,N,00524.429012,W,041.8,155.7,040513,,,A*40
$GPGGA,124645.00,4229.106944,N,00524.422416,W,1,09,0.5,804.6,M,52.0,M,,*78
$GPGSA,A,3,05,08,09,12,15,17,18,24,26,28,,,1.8,1.2,1.4*39
$GPRMC,124645.00,A,4229.106944,N,00524.422416,W,042.0,154.8,040513,,,A*46
$GPGGA,124646.00,4229.096379,N,00524.415507,W,1,09,0.5,804.6,M,52.0,M,,*72
$GPGSA,A,3,05,08,09,12,15,17,18,24,26,28,,,2.5,1.4,2.1*37
$GPRMC,124646.00,A,4229.096379,N,00524.415507,W,042.1,154.4,040513,,,A*41
$GPGGA,124647.00,4229.085778,N,00524.408560,W,1,09,0.5,804.6,M,52.0,M,,*79
$GPGSA,A,3,05,08,09,12,15,17,18,24,26,28,,,2.5,1.4,2.1*37
$GPRMC,124647.00,A,4229.085778,N,00524.408560,W,042.3,154.1,040513,,,A*4D
$GPGGA,124648.00,4229.075186,N,00524.401513,W,1,09,0.5,804.6,M,52.0,M,,*73
$GPGSA,A,3,05,08,09,12,15,17,18,24,26,28,,,2.5,1.4,2.1*37
$GPRMC,124648.00,A,4229.075186,N,00524.401513,W,042.3,153.6,040513,,,A*47
$GPGGA,124649.00,4229.064687,N,00524.394088,W,1,08,0.5,804.6,M,52.0,M,,*79
$GPGSA,A,3,05,08,09,12,15,17,18,24,26,28,,,2.5,1.4,2.1*37
$GPRMC,124649.00,A,4229.064687,N,00524.394088,W,042.4,152.6,040513,,,A*4A
$GPGGA,124650.00,4229.054146,N,00524.386672,W,1,08,0.5,804.7,M,52.0,M,,*79
$GPGSA,A,3,05,08,09,12,15,17,18,24,26,28,,,2.5,1.4,2.1*37
$GPRMC,124650.00,A,4229.054146,N,00524.386672,W,042.5,152.8,040513,,,A*44
$GPGGA,124651.00,4229.043573,N,00524.379253,W,1,08,0.5,804.8,M,52.0,M,,*74
$GPGSA,A,3,05,08,09,12,15,17,18,24,26,28,,,2.5,1.4,2.1*37
$GPRMC,124651.00,A,4229.043573,N,00524.379253,W,042.6,152.9,040513,,,A*44
$GPGGA,124652.00,4229.032961,N,00524.371839,W,1,08,0.5,804.8,M,52.0,M,,*70
$GPGSA,A,3,05,08,09,12,15,17,18,24,26,28,,,2.5,1.4,2.1*37
$GPRMC,124652.00,A,4229.032961,N,00524.371839,W,042.7,153.0,040513,,,A*49
$GPGGA,124653.00,4229.022305,N,00524.364415,W,1,08,0.5,804.9,M,52.0,M,,*7F
$GPGSA,A,3,05,08,09,12,15,17,18,24,26,28,,,2.5,1.4,2.1*37
$GPRMC,124653.00,A,4229.022305,N,00524.364415,W,042.9,153.0,040513,,,A*49
$GPGGA,124654.00,4229.011611,N,00524.356976,W,1,08,0.5,805.0,M,52.0,M,,*79
$GPGSA,A,3,05,08,09,12,15,17,18,24,26,28,,,2.5,1.4,2.1*37
$GPRMC,124654.00,A,4229.011611,N,00524.356976,W,043.0,152.9,040513,,,A*47
$GPGGA,124655.00,4229.000888,N,00524.349536,W,1,09,0.5,805.0,M,52.0,M,,*71
$GPGSA,A,3,05,08,09,12,15,17,18,24,26,28,,,2.5,1.4,2.1*37
$GPRMC,124655.00,A,4229.000888,N,00524.349536,W,043.1,153.0,040513,,,A*47
$GPGGA,124656.00,4228.990128,N,00524.342068,W,1,09,0.5,805.1,M,52.0,M,,*74
$GPGSA,A,3,05,08,09,12,15,17,18,24,26,28,,,2.5,1.4,2.1*37
$GPRMC,124656.00,A,4228.990128,N,00524.342068,W,043.2,152.9,040513,,,A*48
$GPGGA,124657.00,4228.979341,N,00524.334575,W,1,08,0.5,805.1,M,52.0,M,,*76
$GPGSA,A,3,05,08,09,12,15,17,18,24,26,28,,,2.5,1.4,2.1*37
$GPRMC,124657.00,A,4228.979341,N,00524.334575,W,043.3,153.0,040513,,,A*42
$GPGGA,124658.00,4228.968530,N,00524.327067,W,1,08,0.5,805.1,M,52.0,M,,*7D
$GPGSA,A,3,05,08,09,12,15,17,18,24,26,28,,,2.5,1.4,2.1*37
$GPRMC,124658.00,A,4228.968530,N,00524.327067,W,043.4,153.0,040513,,,A*4E
$GPGGA,124659.00,4228.957710,N,00524.319538,W,1,08,0.5,805.0,M,52.0,M,,*73
$GPGSA,A,3,05,08,09,12,15,17,18,24,26,28,,,2.5,1.4,2.1*37
$GPRMC,124659.00,A,4228.957710,N,00524.319538,W,043.4,152.9,040513,,,A*49
$GPGGA,124700.00,4228.946881,N,00524.312002,W,1,08,0.5,805.0,M,52.0,M,,*7E
$GPGSA,A,3,05,08,09,12,15,17,18,24,26,28,,,2.5,1.4,2.1*37
$GPRMC,124700.00,A,4228.946881,N,00524.312002,W,043.5,152.9,040513,,,A*45
$GPGGA,124701.00,4228.936062,N,00524.304469,W,1,08,0.5,805.0,M,52.0,M,,*73
$GPGSA,A,3,05,08,09,12,15,17,18,24,26,28,,,2.5,1.4,2.1*37
$GPRMC,124701.00,A,4228.936062,N,00524.304469,W,043.5,153.0,040513,,,A*40
$GPGGA,124702.00,4228.925273,N,00524.296975,W,1,08,0.5,805.0,M,52.0,M,,*7A
$GPGSA,A,3,05,08,09,12,15,17,18,24,26,28,,,2.5,1.4,2.1*37
$GPRMC,124702.00,A,4228.925273,N,00524.296975,W,043.4,153.0,040513,,,A*48
$GPGGA,124703.00,4228.914524,N,00524.289522,W,1,08,0.5,804.9,M,52.0,M,,*74
$GPGSA,A,3,05,08,09,12,15,17,18,24,26,28,,,2.5,1.4,2.1*37
$GPRMC,124703.00,A,4228.914524,N,00524.289522,W,043.3,153.1,040513,,,A*48
$GPGGA,124704.00,4228.903827,N,00524.282074,W,1,08,0.5,804.9,M,52.0,M,,*76
$GPGSA,A,3,05,08,09,12,15,17,18,24,26,28,,,2.5,1.4,2.1*37
$GPRMC,124704.00,A,4228.903827,N,00524.282074,W,043.3,153.0,040513,,,A*4B
$GPGGA,124705.00,4228.893143,N,00524.274648,W,1,08,0.5,804.8,M,52.0,M,,*75
$GPGSA,A,3,05,08,09,12,15,17,18,24,26,28,,,2.5,1.4,2.1*37
$GPRMC,124705.00,A,4228.893143,N,00524.274648,W,043.3,152.8,040513,,,A*40
$GPGGA,124706.00,4228.882511,N,00524.267270,W,1,08,0.5,804.6,M,52.0,M,,*76
$GPGSA,A,3,05,08,09,12,15,17,18,24,26,28,,,2.5,1.4,2.1*37
$GPRMC,124706.00,A,4228.882511,N,00524.267270,W,043.2,152.7,040513,,,A*43
$GPGGA,124707.00,4228.871896,N,00524.259934,W,1,08,0.5,804.4,M,52.0,M,,*7D
$GPGSA,A,3,05,08,09,12,15,17,18,24,26,28,,,2.5,1.4,2.1*37
$GPRMC,124707.00,A,4228.871896,N,00524.259934,W,043.1,152.9,040513,,,A*47
$GPGGA,124708.00,4228.861305,N,00524.252630,W,1,08,0.5,804.2,M,52.0,M,,*74
$GPGSA,A,3,05,08,09,12,15,17,18,24,26,28,,,2.5,1.4,2.1*37
$GPRMC,124708.00,A,4228.861305,N,00524.252630,W,043.0,153.0,040513,,,A*41
$GPGGA,124709.00,4228.850711,N,00524.245314,W,1,08,0.5,804.0,M,52.0,M,,*71
$GPGSA,A,3,05,08,09,12,15,17,18,24,26,28,,,2.5,1.4,2.1*37
$GPRMC,124709.00,A,4228.850711,N,00524.245314,W,043.0,152.7,040513,,,A*40
$GPGGA,124710.00,4228.840105,N,00524.237980,W,1,08,0.5,803.8,M,52.0,M,,*76
$GPGSA,A,3,05,08,09,12,15,17,18,24,26,28,,,2.5,1.4,2.1*37
$GPRMC,124710.00,A,4228.840105,N,00524.237980,W,043.0,152.6,040513,,,A*49
$GPGGA,124711.00,4228.829489,N,00524.230650,W,1,08,0.5,803.6,M,52.0,M,,*72
$GPGSA,A,3,05,08,09,12,15,17,18,24,26,28,,,2.5,1.4,2.1*37
$GPRMC,124711.00,A,4228.829489,N,00524.230650,W,043.0,152.8,040513,,,A*4D
$GPGGA,124712.00,4228.818841,N,00524.223366,W,1,08,0.5,803.4,M,52.0,M,,*7B
$GPGSA,A,3,05,08,09,12,15,17,18,24,26,28,,,2.5,1.4,2.1*37
$GPRMC,124712.00,A,4228.818841,N,00524.223366,W,043.0,153.2,040513,,,A*4D
$GPGGA,124713.00,4228.808216,N,00524.216123,W,1,08,0.5,803.2,M,52.0,M,,*70
